{
  "QRZDatabase": {
    "-version": "1.33",
    "-xmlns": "http://xmldata.qrz.com",
    "DXCC": [
      {
        "cqzone": "0",
        "dxcc": "0",
        "ituzone": "0",
        "lat": "0.000000",
        "lon": "0.000000",
        "name": "NON-DXCC",
        "timezone": "0"
      },
      {
        "cc": "CA",
        "ccc": "CAN",
        "continent": "NA",
        "cqzone": "1",
        "dxcc": "1",
        "ituzone": "2",
        "lat": "44.527843",
        "lon": "-79.189453",
        "name": "Canada",
        "timezone": "-5"
      },
      {
        "continent": "AS",
        "cqzone": "21",
        "dxcc": "2",
        "ituzone": "39",
        "lat": "27.318333",
        "lon": "49.586944",
        "name": "Abu Ail Island",
        "timezone": "0"
      },
      {
        "cc": "AF",
        "ccc": "AFG",
        "continent": "AS",
        "cqzone": "21",
        "dxcc": "3",
        "ituzone": "40",
        "lat": "34.455937",
        "lon": "66.105273",
        "name": "Afghanistan",
        "notes": "Note: note",
        "timezone": "5"
      },
      {
        "cc": "MP",
        "ccc": "MNP",
        "continent": "AF",
        "cqzone": "39",
        "dxcc": "4",
        "ituzone": "53",
        "lat": "-10.348695",
        "lon": "56.530151",
        "name": "Agalega and St Brandon",
        "timezone": "4"
      },
      {
        "cc": "AX",
        "ccc": "ALA",
        "continent": "EU",
        "cqzone": "15",
        "dxcc": "5",
        "ituzone": "18",
        "lat": "60.192060",
        "lon": "19.907227",
        "name": "Aland Islands",
        "timezone": "2"
      },
      {
        "cc": "US",
        "ccc": "USA",
        "continent": "NA",
        "cqzone": "1",
        "dxcc": "6",
        "ituzone": "1",
        "lat": "64.830254",
        "lon": "-147.656250",
        "name": "Alaska",
        "timezone": "-8"
      },
      {
        "cc": "AL",
        "ccc": "ALB",
        "continent": "EU",
        "cqzone": "15",
        "dxcc": "7",
        "ituzone": "28",
        "lat": "41.294317",
        "lon": "20.083008",
        "name": "Albania",
        "timezone": "1"
      },
      {
        "continent": "AF",
        "cqzone": "39",
        "dxcc": "8",
        "ituzone": "53",
        "lat": "0.000000",
        "lon": "0.000000",
        "name": "Aldabra",
        "timezone": "0"
      },
      {
        "cc": "AS",
        "ccc": "ASM",
        "continent": "OC",
        "cqzone": "32",
        "dxcc": "9",
        "ituzone": "62",
        "lat": "-14.261721",
        "lon": "-170.570984",
        "name": "American Samoa",
        "timezone": "-11"
      },
      {
        "cc": "FR",
        "ccc": "FRA",
        "continent": "AF",
        "cqzone": "39",
        "dxcc": "10",
        "ituzone": "68",
        "lat": "-38.307181",
        "lon": "77.541504",
        "name": "Amsterdam and St Paul Islands",
        "notes": "aka ÃŽle Saint-Paul",
        "timezone": "5"
      },
      {
        "cc": "IN",
        "ccc": "IND",
        "continent": "AS",
        "cqzone": "26",
        "dxcc": "11",
        "ituzone": "49",
        "lat": "12.495577",
        "lon": "92.823486",
        "name": "Andaman and Nicobar Islands",
        "timezone": "6"
      },
      {
        "cc": "AI",
        "ccc": "AIA",
        "continent": "NA",
        "cqzone": "8",
        "dxcc": "12",
        "ituzone": "11",
        "lat": "18.229351",
        "lon": "-63.047791",
        "name": "Anguilla",
        "timezone": "-4"
      },
      {
        "cc": "AQ",
        "ccc": "ATA",
        "continent": "AN",
        "cqzone": "12",
        "dxcc": "13",
        "ituzone": "67",
        "lat": "-74.867889",
        "lon": "23.378906",
        "name": "Antarctica",
        "timezone": "0"
      },
      {
        "cc": "AM",
        "ccc": "ARM",
        "continent": "AS",
        "cqzone": "21",
        "dxcc": "14",
        "ituzone": "29",
        "lat": "40.488737",
        "lon": "44.582520",
        "name": "Armenia",
        "timezone": "4"
      },
      {
        "cc": "RU",
        "ccc": "RUS",
        "continent": "AS",
        "cqzone": "16",
        "dxcc": "15",
        "ituzone": "20",
        "lat": "52.268157",
        "lon": "113.027344",
        "name": "Asiatic Russia",
        "timezone": "7"
      },
      {
        "cc": "NZ",
        "ccc": "NZL",
        "continent": "OC",
        "cqzone": "32",
        "dxcc": "16",
        "ituzone": "60",
        "lat": "-52.552976",
        "lon": "169.140015",
        "name": "Auckland, Campbell Islands",
        "timezone": "12"
      },
      {
        "cc": "VE",
        "ccc": "VEN",
        "continent": "NA",
        "cqzone": "8",
        "dxcc": "17",
        "ituzone": "11",
        "lat": "15.670643",
        "lon": "-63.654785",
        "name": "Aves Island",
        "timezone": "-4"
      },
      {
        "cc": "AZ",
        "ccc": "AZE",
        "continent": "As",
        "cqzone": "21",
        "dxcc": "18",
        "ituzone": "29",
        "lat": "40.513799",
        "lon": "47.592773",
        "name": "Azerbaijan",
        "timezone": "4"
      },
      {
        "continent": "NA",
        "cqzone": "8",
        "dxcc": "19",
        "ituzone": "11",
        "lat": "15.883333",
        "lon": "-78.633333",
        "name": "Bajo Neuvo",
        "timezone": "0"
      },
      {
        "cc": "US",
        "ccc": "USA",
        "continent": "OC",
        "cqzone": "31",
        "dxcc": "20",
        "ituzone": "61",
        "lat": "0.505365",
        "lon": "-176.572266",
        "name": "Baker and Howland Islands",
        "timezone": "-12"
      },
      {
        "cc": "ES",
        "ccc": "ESP",
        "continent": "EU",
        "cqzone": "14",
        "dxcc": "21",
        "ituzone": "37",
        "lat": "39.622615",
        "lon": "2.944336",
        "name": "Balearic Islands",
        "timezone": "1"
      },
      {
        "cc": "PW",
        "ccc": "PLW",
        "continent": "OC",
        "cqzone": "27",
        "dxcc": "22",
        "ituzone": "64",
        "lat": "7.493196",
        "lon": "134.571533",
        "name": "Palau",
        "timezone": "10"
      },
      {
        "continent": "AF",
        "cqzone": "39",
        "dxcc": "23",
        "ituzone": "41",
        "lat": "0.000000",
        "lon": "0.000000",
        "name": "Blenheim Reef",
        "timezone": "0"
      },
      {
        "cc": "BV",
        "ccc": "BVT",
        "continent": "AF",
        "cqzone": "38",
        "dxcc": "24",
        "ituzone": "67",
        "lat": "-54.428518",
        "lon": "3.422241",
        "name": "Bouvet Island",
        "timezone": "0"
      },
      {
        "continent": "OC",
        "cqzone": "28",
        "dxcc": "25",
        "ituzone": "54",
        "lat": "0.000000",
        "lon": "0.000000",
        "name": "British North Borneo",
        "timezone": "0"
      },
      {
        "continent": "AF",
        "cqzone": "37",
        "dxcc": "26",
        "ituzone": "48",
        "lat": "0.000000",
        "lon": "0.000000",
        "name": "British Somaliland",
        "timezone": "0"
      },
      {
        "cc": "BY",
        "ccc": "BLR",
        "continent": "Eu",
        "cqzone": "16",
        "dxcc": "27",
        "ituzone": "29",
        "lat": "54.265224",
        "lon": "27.773438",
        "name": "Belarus",
        "timezone": "2"
      },
      {
        "continent": "NA",
        "cqzone": "7",
        "dxcc": "28",
        "ituzone": "11",
        "lat": "0.000000",
        "lon": "0.000000",
        "name": "Canal Zone",
        "timezone": "0"
      },
      {
        "cc": "ES",
        "ccc": "ESP",
        "continent": "AF",
        "cqzone": "33",
        "dxcc": "29",
        "ituzone": "36",
        "lat": "27.955591",
        "lon": "-15.468750",
        "name": "Canary Islands",
        "timezone": "0"
      },
      {
        "continent": "OC",
        "cqzone": "28",
        "dxcc": "30",
        "ituzone": "54",
        "lat": "0.000000",
        "lon": "0.000000",
        "name": "Celebe & Molucca Is.",
        "timezone": "0"
      },
      {
        "cc": "KI",
        "ccc": "KIR",
        "continent": "OC",
        "cqzone": "31",
        "dxcc": "31",
        "ituzone": "62",
        "lat": "1.362176",
        "lon": "173.144531",
        "name": "Central Kiribati",
        "timezone": "12"
      },
      {
        "cc": "ES",
        "ccc": "ESP",
        "continent": "AF",
        "cqzone": "33",
        "dxcc": "32",
        "ituzone": "37",
        "lat": "35.888216",
        "lon": "-5.323563",
        "name": "Ceuta and Melilla",
        "notes": "See also http://en.wikipedia.org/wiki/Ceuta",
        "timezone": "1"
      },
      {
        "cc": "GB",
        "ccc": "GBR",
        "continent": "AF",
        "cqzone": "39",
        "dxcc": "33",
        "ituzone": "41",
        "lat": "-7.310709",
        "lon": "72.399902",
        "name": "Chagos Islands",
        "timezone": "5"
      },
      {
        "cc": "NZ",
        "ccc": "NZL",
        "continent": "OC",
        "cqzone": "32",
        "dxcc": "34",
        "ituzone": "60",
        "lat": "-43.969098",
        "lon": "176.704102",
        "name": "Chatham Islands",
        "timezone": "13"
      },
      {
        "cc": "CX",
        "ccc": "CXR",
        "continent": "OC",
        "cqzone": "29",
        "dxcc": "35",
        "ituzone": "54",
        "lat": "-10.498614",
        "lon": "105.628052",
        "name": "Christmas Island",
        "timezone": "7"
      },
      {
        "cc": "FR",
        "ccc": "FRA",
        "continent": "NA",
        "cqzone": "7",
        "dxcc": "36",
        "ituzone": "10",
        "lat": "10.309515",
        "lon": "-109.226074",
        "name": "Clipperton Island",
        "timezone": "-7"
      },
      {
        "cc": "CR",
        "ccc": "CRI",
        "continent": "NA",
        "cqzone": "7",
        "dxcc": "37",
        "ituzone": "11",
        "lat": "5.528511",
        "lon": "-87.077637",
        "name": "Cocos Island",
        "timezone": "-6"
      },
      {
        "cc": "CC",
        "ccc": "CCK",
        "continent": "OC",
        "cqzone": "29",
        "dxcc": "38",
        "ituzone": "54",
        "lat": "-12.125264",
        "lon": "96.833496",
        "name": "Cocos-Keeling Islands",
        "timezone": "7"
      },
      {
        "cc": "GR",
        "ccc": "GRC",
        "continent": "EU",
        "cqzone": "20",
        "dxcc": "40",
        "ituzone": "28",
        "lat": "35.218697",
        "lon": "24.642334",
        "name": "Crete",
        "timezone": "2"
      },
      {
        "cc": "FR",
        "ccc": "FRA",
        "continent": "AF",
        "cqzone": "39",
        "dxcc": "41",
        "ituzone": "68",
        "lat": "-46.417032",
        "lon": "51.770325",
        "name": "Crozet Island",
        "timezone": "3"
      },
      {
        "cc": "PR",
        "ccc": "PRI",
        "continent": "NA",
        "cqzone": "8",
        "dxcc": "43",
        "ituzone": "11",
        "lat": "18.384502",
        "lon": "-67.480774",
        "name": "Desecheo Island",
        "timezone": "-4"
      },
      {
        "continent": "AF",
        "cqzone": "39",
        "dxcc": "44",
        "ituzone": "53",
        "lat": "0.000000",
        "lon": "0.000000",
        "name": "Desroches",
        "timezone": "0"
      },
      {
        "cc": "GR",
        "ccc": "GRC",
        "continent": "EU",
        "cqzone": "20",
        "dxcc": "45",
        "ituzone": "28",
        "lat": "36.211039",
        "lon": "27.953339",
        "name": "Dodecanese",
        "timezone": "2"
      },
      {
        "cc": "MY",
        "ccc": "MYS",
        "continent": "OC",
        "cqzone": "28",
        "dxcc": "46",
        "ituzone": "54",
        "lat": "5.069058",
        "lon": "116.477051",
        "name": "East Malaysia",
        "timezone": "8"
      },
      {
        "cc": "CL",
        "ccc": "CHL",
        "continent": "SA",
        "cqzone": "12",
        "dxcc": "47",
        "ituzone": "63",
        "lat": "-27.112923",
        "lon": "-109.368896",
        "name": "Easter Island",
        "timezone": "-7"
      },
      {
        "cc": "KI",
        "ccc": "KIR",
        "continent": "OC",
        "cqzone": "31",
        "dxcc": "48",
        "ituzone": "61",
        "lat": "1.900286",
        "lon": "157.664795",
        "name": "East Kiribati",
        "timezone": "12"
      },
      {
        "cc": "GQ",
        "ccc": "GNQ",
        "continent": "AF",
        "cqzone": "36",
        "dxcc": "49",
        "ituzone": "47",
        "lat": "1.603794",
        "lon": "10.480957",
        "name": "Equatorial Guinea",
        "timezone": "-1"
      },
      {
        "cc": "MX",
        "ccc": "MEX",
        "continent": "NA",
        "cqzone": "6",
        "dxcc": "50",
        "ituzone": "10",
        "lat": "19.435514",
        "lon": "-99.096680",
        "name": "Mexico",
        "timezone": "-6"
      },
      {
        "cc": "ER",
        "ccc": "ERI",
        "continent": "AF",
        "cqzone": "37",
        "dxcc": "51",
        "ituzone": "48",
        "lat": "15.771109",
        "lon": "38.781738",
        "name": "Eritrea",
        "timezone": "3"
      },
      {
        "cc": "EE",
        "ccc": "EST",
        "continent": "EU",
        "cqzone": "15",
        "dxcc": "52",
        "ituzone": "29",
        "lat": "59.006628",
        "lon": "25.664063",
        "name": "Estonia",
        "timezone": "2"
      },
      {
        "cc": "ET",
        "ccc": "ETH",
        "continent": "AF",
        "cqzone": "37",
        "dxcc": "53",
        "ituzone": "48",
        "lat": "9.253936",
        "lon": "38.583984",
        "name": "Ethiopia",
        "timezone": "3"
      },
      {
        "cc": "RU",
        "ccc": "RUS",
        "continent": "EU",
        "cqzone": "16",
        "dxcc": "54",
        "ituzone": "19",
        "lat": "55.751849",
        "lon": "37.529297",
        "name": "Russia",
        "timezone": "3"
      },
      {
        "continent": "AF",
        "cqzone": "39",
        "dxcc": "55",
        "ituzone": "53",
        "lat": "0.000000",
        "lon": "0.000000",
        "name": "Farquhar",
        "timezone": "0"
      },
      {
        "cc": "BR",
        "ccc": "BRA",
        "continent": "SA",
        "cqzone": "11",
        "dxcc": "56",
        "ituzone": "13",
        "lat": "-3.856034",
        "lon": "-32.424774",
        "name": "Fernando de Noronha",
        "timezone": "-2"
      },
      {
        "continent": "AF",
        "cqzone": "36",
        "dxcc": "57",
        "ituzone": "47",
        "lat": "0.000000",
        "lon": "0.000000",
        "name": "French Equatorial Africa",
        "timezone": "0"
      },
      {
        "continent": "AS",
        "cqzone": "26",
        "dxcc": "58",
        "ituzone": "49",
        "lat": "0.000000",
        "lon": "0.000000",
        "name": "French Indo-China",
        "timezone": "0"
      },
      {
        "continent": "AF",
        "cqzone": "35",
        "dxcc": "59",
        "ituzone": "46",
        "lat": "0.000000",
        "lon": "0.000000",
        "name": "French West Africa",
        "timezone": "0"
      },
      {
        "cc": "BS",
        "ccc": "BHS",
        "continent": "NA",
        "cqzone": "8",
        "dxcc": "60",
        "ituzone": "11",
        "lat": "25.030861",
        "lon": "-77.404175",
        "name": "Bahamas",
        "timezone": "-5"
      },
      {
        "cc": "RU",
        "ccc": "RUS",
        "continent": "EU",
        "cqzone": "40",
        "dxcc": "61",
        "ituzone": "75",
        "lat": "80.444931",
        "lon": "49.394531",
        "name": "Franz Josef Land",
        "timezone": "3"
      },
      {
        "cc": "BB",
        "ccc": "BRB",
        "continent": "NA",
        "cqzone": "8",
        "dxcc": "62",
        "ituzone": "11",
        "lat": "13.143678",
        "lon": "-59.567871",
        "name": "Barbados",
        "timezone": "-4"
      },
      {
        "cc": "GF",
        "ccc": "GUF",
        "continent": "SA",
        "cqzone": "9",
        "dxcc": "63",
        "ituzone": "12",
        "lat": "4.762573",
        "lon": "-53.657227",
        "name": "French Guiana",
        "timezone": "-4"
      },
      {
        "cc": "BM",
        "ccc": "BMU",
        "continent": "NA",
        "cqzone": "5",
        "dxcc": "64",
        "ituzone": "11",
        "lat": "32.292937",
        "lon": "-64.769897",
        "name": "Bermuda",
        "timezone": "-4"
      },
      {
        "cc": "VG",
        "ccc": "VGB",
        "continent": "NA",
        "cqzone": "8",
        "dxcc": "65",
        "ituzone": "11",
        "lat": "18.411867",
        "lon": "-64.662781",
        "name": "British Virgin Islands",
        "timezone": "-4"
      },
      {
        "cc": "BZ",
        "ccc": "BLZ",
        "continent": "NA",
        "cqzone": "7",
        "dxcc": "66",
        "ituzone": "11",
        "lat": "16.972741",
        "lon": "-88.769531",
        "name": "Belize",
        "timezone": "-6"
      },
      {
        "continent": "AS",
        "cqzone": "22",
        "dxcc": "67",
        "ituzone": "41",
        "lat": "0.000000",
        "lon": "0.000000",
        "name": "French India",
        "timezone": "0"
      },
      {
        "continent": "AS",
        "cqzone": "21",
        "dxcc": "68",
        "ituzone": "39",
        "lat": "0.000000",
        "lon": "0.000000",
        "name": "Kuwait/Saudi Arabia Neutral Zone",
        "timezone": "0"
      },
      {
        "cc": "KY",
        "ccc": "CYM",
        "continent": "NA",
        "cqzone": "8",
        "dxcc": "69",
        "ituzone": "11",
        "lat": "19.321511",
        "lon": "-81.243896",
        "name": "Cayman Islands",
        "timezone": "-5"
      },
      {
        "cc": "CU",
        "ccc": "CUB",
        "continent": "NA",
        "cqzone": "8",
        "dxcc": "70",
        "ituzone": "11",
        "lat": "22.816694",
        "lon": "-81.628418",
        "name": "Cuba",
        "timezone": "-5"
      },
      {
        "cc": "EC",
        "ccc": "ECU",
        "continent": "SA",
        "cqzone": "10",
        "dxcc": "71",
        "ituzone": "12",
        "lat": "-0.856902",
        "lon": "-91.142578",
        "name": "Galapagos Islands",
        "timezone": "-6"
      },
      {
        "cc": "DO",
        "ccc": "DOM",
        "continent": "NA",
        "cqzone": "8",
        "dxcc": "72",
        "ituzone": "11",
        "lat": "18.771115",
        "lon": "-70.092773",
        "name": "Dominican Republic",
        "timezone": "-4"
      },
      {
        "cc": "SV",
        "ccc": "SLV",
        "continent": "NA",
        "cqzone": "7",
        "dxcc": "74",
        "ituzone": "11",
        "lat": "13.539201",
        "lon": "-88.813477",
        "name": "El Salvador",
        "timezone": "-6"
      },
      {
        "cc": "GE",
        "ccc": "GEO",
        "continent": "AS",
        "cqzone": "21",
        "dxcc": "75",
        "ituzone": "29",
        "lat": "41.983994",
        "lon": "43.703613",
        "name": "Georgia",
        "timezone": "4"
      },
      {
        "cc": "GT",
        "ccc": "GTM",
        "continent": "NA",
        "cqzone": "7",
        "dxcc": "76",
        "ituzone": "11",
        "lat": "14.881087",
        "lon": "-90.966797",
        "name": "Guatemala",
        "timezone": "-6"
      },
      {
        "cc": "GD",
        "ccc": "GRD",
        "continent": "NA",
        "cqzone": "8",
        "dxcc": "77",
        "ituzone": "11",
        "lat": "12.109152",
        "lon": "-61.685486",
        "name": "Grenada",
        "timezone": "-4"
      },
      {
        "cc": "HT",
        "ccc": "HTI",
        "continent": "NA",
        "cqzone": "8",
        "dxcc": "78",
        "ituzone": "11",
        "lat": "18.999803",
        "lon": "-72.355957",
        "name": "Haiti",
        "timezone": "-5"
      },
      {
        "cc": "GP",
        "ccc": "GLP",
        "continent": "NA",
        "cqzone": "8",
        "dxcc": "79",
        "ituzone": "11",
        "lat": "16.325411",
        "lon": "-61.446533",
        "name": "Guadeloupe",
        "timezone": "-4"
      },
      {
        "cc": "HN",
        "ccc": "HND",
        "continent": "NA",
        "cqzone": "7",
        "dxcc": "80",
        "ituzone": "11",
        "lat": "14.519780",
        "lon": "-87.297363",
        "name": "Honduras",
        "timezone": "-6"
      },
      {
        "continent": "EU",
        "cqzone": "14",
        "dxcc": "81",
        "ituzone": "28",
        "lat": "0.000000",
        "lon": "0.000000",
        "name": "Germany",
        "timezone": "0"
      },
      {
        "cc": "JM",
        "ccc": "JAM",
        "continent": "NA",
        "cqzone": "8",
        "dxcc": "82",
        "ituzone": "11",
        "lat": "18.104087",
        "lon": "-77.387695",
        "name": "Jamaica",
        "timezone": "-5"
      },
      {
        "cc": "MQ",
        "ccc": "MTQ",
        "continent": "NA",
        "cqzone": "8",
        "dxcc": "84",
        "ituzone": "11",
        "lat": "14.626109",
        "lon": "-60.974121",
        "name": "Martinique",
        "timezone": "-4"
      },
      {
        "cc": "AN",
        "ccc": "ANT",
        "continent": "SA",
        "cqzone": "0",
        "dxcc": "85",
        "ituzone": "0",
        "lat": "12.162856",
        "lon": "-68.705750",
        "name": "Netherlands Antillies",
        "timezone": "0"
      },
      {
        "cc": "NI",
        "ccc": "NIC",
        "continent": "NA",
        "cqzone": "7",
        "dxcc": "86",
        "ituzone": "11",
        "lat": "12.168226",
        "lon": "-86.286621",
        "name": "Nicaragua",
        "timezone": "-6"
      },
      {
        "cc": "PA",
        "ccc": "PAN",
        "continent": "NA",
        "cqzone": "7",
        "dxcc": "88",
        "ituzone": "11",
        "lat": "9.037003",
        "lon": "-79.541016",
        "name": "Panama",
        "timezone": "-5"
      },
      {
        "cc": "TC",
        "ccc": "TCA",
        "continent": "NA",
        "cqzone": "8",
        "dxcc": "89",
        "ituzone": "11",
        "lat": "21.800308",
        "lon": "-71.757202",
        "name": "Turks and  Caicos Islands",
        "timezone": "-5"
      },
      {
        "cc": "TT",
        "ccc": "TTO",
        "continent": "SA",
        "cqzone": "9",
        "dxcc": "90",
        "ituzone": "11",
        "lat": "10.379765",
        "lon": "-61.303711",
        "name": "Trinidad and Tobago",
        "timezone": "-4"
      },
      {
        "cc": "AW",
        "ccc": "ABW",
        "continent": "SA",
        "cqzone": "9",
        "dxcc": "91",
        "ituzone": "11",
        "lat": "12.554564",
        "lon": "-70.021362",
        "name": "Aruba",
        "timezone": "-4"
      },
      {
        "cc": "AG",
        "ccc": "ATG",
        "continent": "NA",
        "cqzone": "8",
        "dxcc": "94",
        "ituzone": "11",
        "lat": "17.104043",
        "lon": "-61.798096",
        "name": "Antigua and Barbuda",
        "timezone": "-4"
      },
      {
        "cc": "DM",
        "ccc": "DMA",
        "continent": "NA",
        "cqzone": "8",
        "dxcc": "95",
        "ituzone": "11",
        "lat": "15.432501",
        "lon": "-61.347656",
        "name": "Dominica",
        "timezone": "-4"
      },
      {
        "cc": "MS",
        "ccc": "MSR",
        "continent": "NA",
        "cqzone": "8",
        "dxcc": "96",
        "ituzone": "11",
        "lat": "16.704602",
        "lon": "-62.199097",
        "name": "Montserrat",
        "timezone": "-4"
      },
      {
        "cc": "LC",
        "ccc": "LCA",
        "continent": "NA",
        "cqzone": "8",
        "dxcc": "97",
        "ituzone": "11",
        "lat": "13.899410",
        "lon": "-60.957642",
        "name": "St Lucia",
        "timezone": "-4"
      },
      {
        "cc": "VC",
        "ccc": "VCT",
        "continent": "NA",
        "cqzone": "8",
        "dxcc": "98",
        "ituzone": "11",
        "lat": "13.234598",
        "lon": "-61.215820",
        "name": "St Vincent",
        "timezone": "-4"
      },
      {
        "cc": "FR",
        "ccc": "FRA",
        "continent": "AF",
        "cqzone": "39",
        "dxcc": "99",
        "ituzone": "53",
        "lat": "-11.579597",
        "lon": "47.298889",
        "name": "Glorioso Islands",
        "timezone": "3"
      },
      {
        "cc": "AR",
        "ccc": "ARG",
        "continent": "SA",
        "cqzone": "13",
        "dxcc": "100",
        "ituzone": "14",
        "lat": "-34.307144",
        "lon": "-64.599609",
        "name": "Argentina",
        "timezone": "-3"
      },
      {
        "continent": "AS",
        "cqzone": "22",
        "dxcc": "101",
        "ituzone": "41",
        "lat": "0.000000",
        "lon": "0.000000",
        "name": "Goa",
        "timezone": "0"
      },
      {
        "continent": "AF",
        "cqzone": "35",
        "dxcc": "102",
        "ituzone": "46",
        "lat": "0.000000",
        "lon": "0.000000",
        "name": "Gold Coast, Togoland",
        "timezone": "0"
      },
      {
        "cc": "GU",
        "ccc": "GUM",
        "continent": "OC",
        "cqzone": "27",
        "dxcc": "103",
        "ituzone": "64",
        "lat": "13.400307",
        "lon": "144.739380",
        "name": "Guam",
        "timezone": "10"
      },
      {
        "cc": "BO",
        "ccc": "BOL",
        "continent": "SA",
        "cqzone": "10",
        "dxcc": "104",
        "ituzone": "12",
        "lat": "-16.320139",
        "lon": "-65.522461",
        "name": "Bolivia",
        "timezone": "-4"
      },
      {
        "cc": "US",
        "ccc": "USA",
        "continent": "NA",
        "cqzone": "8",
        "dxcc": "105",
        "ituzone": "11",
        "lat": "19.957860",
        "lon": "-75.157471",
        "name": "Guantanamo Bay",
        "timezone": "-5"
      },
      {
        "cc": "GG",
        "ccc": "GGY",
        "continent": "EU",
        "cqzone": "14",
        "dxcc": "106",
        "ituzone": "27",
        "lat": "49.464554",
        "lon": "-2.565308",
        "name": "Guernsey",
        "timezone": "0"
      },
      {
        "cc": "GN",
        "ccc": "GIN",
        "continent": "AF",
        "cqzone": "35",
        "dxcc": "107",
        "ituzone": "46",
        "lat": "10.574222",
        "lon": "-13.007812",
        "name": "Guinea",
        "timezone": "0"
      },
      {
        "cc": "BR",
        "ccc": "BRA",
        "continent": "SA",
        "cqzone": "11",
        "dxcc": "108",
        "ituzone": "12",
        "lat": "-10.314919",
        "lon": "-51.591797",
        "name": "Brazil",
        "timezone": "-3"
      },
      {
        "cc": "GW",
        "ccc": "GNB",
        "continent": "AF",
        "cqzone": "35",
        "dxcc": "109",
        "ituzone": "46",
        "lat": "12.017830",
        "lon": "-15.534668",
        "name": "Guinea-Bissau",
        "timezone": "-1"
      },
      {
        "cc": "US",
        "ccc": "USA",
        "continent": "OC",
        "cqzone": "31",
        "dxcc": "110",
        "ituzone": "61",
        "lat": "21.453069",
        "lon": "-158.005371",
        "name": "Hawaii",
        "timezone": "-10"
      },
      {
        "cc": "HM",
        "ccc": "HMD",
        "continent": "AF",
        "cqzone": "39",
        "dxcc": "111",
        "ituzone": "68",
        "lat": "-53.080827",
        "lon": "73.509521",
        "name": "Heard Islands",
        "timezone": "5"
      },
      {
        "cc": "CL",
        "ccc": "CHL",
        "continent": "SA",
        "cqzone": "12",
        "dxcc": "112",
        "ituzone": "14",
        "lat": "-33.302986",
        "lon": "-70.554199",
        "name": "Chile",
        "timezone": "-4"
      },
      {
        "continent": "AF",
        "cqzone": "33",
        "dxcc": "113",
        "ituzone": "37",
        "lat": "0.000000",
        "lon": "0.000000",
        "name": "Ifni",
        "timezone": "0"
      },
      {
        "cc": "IM",
        "ccc": "IMN",
        "continent": "EU",
        "cqzone": "14",
        "dxcc": "114",
        "ituzone": "27",
        "lat": "54.226708",
        "lon": "-4.548340",
        "name": "Isle of Man",
        "timezone": "0"
      },
      {
        "continent": "AF",
        "cqzone": "37",
        "dxcc": "115",
        "ituzone": "48",
        "lat": "0.000000",
        "lon": "0.000000",
        "name": "Italian Somaliland",
        "timezone": "0"
      },
      {
        "cc": "CO",
        "ccc": "COL",
        "continent": "SA",
        "cqzone": "9",
        "dxcc": "116",
        "ituzone": "12",
        "lat": "4.806365",
        "lon": "-73.608398",
        "name": "Colombia",
        "timezone": "-5"
      },
      {
        "cc": "CH",
        "ccc": "CHE",
        "continent": "EU",
        "cqzone": "14",
        "dxcc": "117",
        "ituzone": "28",
        "lat": "46.204547",
        "lon": "6.097412",
        "name": "ITU Geneva",
        "timezone": "1"
      },
      {
        "cc": "SJ",
        "ccc": "SJM",
        "continent": "EU",
        "cqzone": "40",
        "dxcc": "118",
        "ituzone": "18",
        "lat": "71.052665",
        "lon": "-8.239746",
        "name": "Jan Mayen Island",
        "timezone": "-1"
      },
      {
        "continent": "OC",
        "cqzone": "28",
        "dxcc": "119",
        "ituzone": "54",
        "lat": "0.000000",
        "lon": "0.000000",
        "name": "Java",
        "timezone": "0"
      },
      {
        "cc": "EC",
        "ccc": "ECU",
        "continent": "SA",
        "cqzone": "10",
        "dxcc": "120",
        "ituzone": "12",
        "lat": "-1.362176",
        "lon": "-78.859863",
        "name": "Ecuador",
        "timezone": "-5"
      },
      {
        "cc": "JE",
        "ccc": "JEY",
        "continent": "EU",
        "cqzone": "14",
        "dxcc": "122",
        "ituzone": "27",
        "lat": "49.196064",
        "lon": "-2.131348",
        "name": "Jersey",
        "timezone": "0"
      },
      {
        "cc": "US",
        "ccc": "USA",
        "continent": "OC",
        "cqzone": "31",
        "dxcc": "123",
        "ituzone": "61",
        "lat": "16.757208",
        "lon": "-169.491577",
        "name": "Johnston Island",
        "timezone": "-11"
      },
      {
        "cc": "FR",
        "ccc": "FRA",
        "continent": "AF",
        "cqzone": "39",
        "dxcc": "124",
        "ituzone": "53",
        "lat": "-17.054159",
        "lon": "42.728577",
        "name": "Juan de Nova Island",
        "notes": "See also http://en.wikipedia.org/wiki/Scattered_islands_in_the_Indian_Ocean",
        "timezone": "3"
      },
      {
        "cc": "CL",
        "ccc": "CHL",
        "continent": "SA",
        "cqzone": "12",
        "dxcc": "125",
        "ituzone": "14",
        "lat": "-33.651208",
        "lon": "-78.813171",
        "name": "Juan Fernandez Islands",
        "timezone": "-4"
      },
      {
        "cc": "RU",
        "ccc": "RUS",
        "continent": "EU",
        "cqzone": "15",
        "dxcc": "126",
        "ituzone": "29",
        "lat": "54.724620",
        "lon": "20.698242",
        "name": "Kaliningrad",
        "timezone": "2"
      },
      {
        "continent": "AS",
        "cqzone": "21",
        "dxcc": "127",
        "ituzone": "39",
        "lat": "0.000000",
        "lon": "0.000000",
        "name": "Kamaran Is.",
        "timezone": "0"
      },
      {
        "cc": "GY",
        "ccc": "GUY",
        "continent": "SA",
        "cqzone": "9",
        "dxcc": "129",
        "ituzone": "12",
        "lat": "5.287887",
        "lon": "-59.062500",
        "name": "Guyana",
        "timezone": "-4"
      },
      {
        "cc": "KZ",
        "ccc": "KAZ",
        "continent": "AS",
        "cqzone": "17",
        "dxcc": "130",
        "ituzone": "29",
        "lat": "47.606163",
        "lon": "68.071289",
        "name": "Kazakhstan",
        "timezone": "6"
      },
      {
        "cc": "FR",
        "ccc": "FRA",
        "continent": "AF",
        "cqzone": "39",
        "dxcc": "131",
        "ituzone": "68",
        "lat": "-49.425267",
        "lon": "69.587402",
        "name": "Kerguelen Islands",
        "timezone": "5"
      },
      {
        "cc": "PY",
        "ccc": "PRY",
        "continent": "SA",
        "cqzone": "11",
        "dxcc": "132",
        "ituzone": "14",
        "lat": "-23.905927",
        "lon": "-57.348633",
        "name": "Paraguay",
        "timezone": "-4"
      },
      {
        "cc": "NZ",
        "ccc": "NZL",
        "continent": "OC",
        "cqzone": "32",
        "dxcc": "133",
        "ituzone": "60",
        "lat": "-29.260045",
        "lon": "-177.926331",
        "name": "Kermadec Islands",
        "timezone": "12"
      },
      {
        "cc": "US",
        "ccc": "USA",
        "continent": "OC",
        "cqzone": "31",
        "dxcc": "134",
        "ituzone": "61",
        "lat": "6.356246",
        "lon": "-162.408142",
        "name": "Kingman Reef",
        "timezone": "-11"
      },
      {
        "cc": "KG",
        "ccc": "KGZ",
        "continent": "AS",
        "cqzone": "17",
        "dxcc": "135",
        "ituzone": "30",
        "lat": "41.640078",
        "lon": "74.223633",
        "name": "Kyrgyzstan",
        "timezone": "6"
      },
      {
        "cc": "PE",
        "ccc": "PER",
        "continent": "SA",
        "cqzone": "10",
        "dxcc": "136",
        "ituzone": "12",
        "lat": "-10.962764",
        "lon": "-76.882324",
        "name": "Peru",
        "timezone": "-5"
      },
      {
        "cc": "KR",
        "ccc": "KOR",
        "continent": "AS",
        "cqzone": "25",
        "dxcc": "137",
        "ituzone": "44",
        "lat": "37.909534",
        "lon": "127.089844",
        "name": "South Korea",
        "timezone": "9"
      },
      {
        "cc": "US",
        "ccc": "USA",
        "continent": "OC",
        "cqzone": "31",
        "dxcc": "138",
        "ituzone": "61",
        "lat": "28.393775",
        "lon": "-178.295325",
        "name": "Kure Atoll",
        "timezone": "-11"
      },
      {
        "cc": "SR",
        "ccc": "SUR",
        "continent": "SA",
        "cqzone": "9",
        "dxcc": "140",
        "ituzone": "12",
        "lat": "5.112830",
        "lon": "-55.568848",
        "name": "Suriname",
        "timezone": "-4"
      },
      {
        "cc": "FK",
        "ccc": "FLK",
        "continent": "SA",
        "cqzone": "13",
        "dxcc": "141",
        "ituzone": "16",
        "lat": "-51.713416",
        "lon": "-58.688965",
        "name": "Falkland Islands",
        "timezone": "-4"
      },
      {
        "cc": "IN",
        "ccc": "IND",
        "continent": "AS",
        "cqzone": "22",
        "dxcc": "142",
        "ituzone": "41",
        "lat": "10.822515",
        "lon": "73.675690",
        "name": "Lakshadweep Islands",
        "timezone": "6"
      },
      {
        "cc": "LA",
        "ccc": "LAO",
        "continent": "AS",
        "cqzone": "26",
        "dxcc": "143",
        "ituzone": "49",
        "lat": "19.186678",
        "lon": "103.029785",
        "name": "Laos",
        "timezone": "7"
      },
      {
        "cc": "UY",
        "ccc": "URY",
        "continent": "SA",
        "cqzone": "13",
        "dxcc": "144",
        "ituzone": "14",
        "lat": "-33.119150",
        "lon": "-56.140137",
        "name": "Uruguay",
        "timezone": "-3"
      },
      {
        "cc": "LV",
        "ccc": "LVA",
        "continent": "EU",
        "cqzone": "15",
        "dxcc": "145",
        "ituzone": "29",
        "lat": "56.980911",
        "lon": "24.499512",
        "name": "Latvia",
        "timezone": "2"
      },
      {
        "cc": "LT",
        "ccc": "LTU",
        "continent": "EU",
        "cqzone": "15",
        "dxcc": "146",
        "ituzone": "29",
        "lat": "55.279115",
        "lon": "22.895508",
        "name": "Lithuania",
        "timezone": "2"
      },
      {
        "cc": "AU",
        "ccc": "AUS",
        "continent": "OC",
        "cqzone": "30",
        "dxcc": "147",
        "ituzone": "60",
        "lat": "-31.560985",
        "lon": "159.086151",
        "name": "Lord Howe Island",
        "timezone": "10"
      },
      {
        "cc": "VE",
        "ccc": "VEN",
        "continent": "SA",
        "cqzone": "9",
        "dxcc": "148",
        "ituzone": "12",
        "lat": "9.102097",
        "lon": "-67.829590",
        "name": "Venezuela",
        "timezone": "-4"
      },
      {
        "cc": "PT",
        "ccc": "PRT",
        "continent": "EU",
        "cqzone": "14",
        "dxcc": "149",
        "ituzone": "36",
        "lat": "38.711233",
        "lon": "-27.207642",
        "name": "Azores",
        "timezone": "-1"
      },
      {
        "cc": "AU",
        "ccc": "AUS",
        "continent": "OC",
        "cqzone": "29",
        "dxcc": "150",
        "ituzone": "55",
        "lat": "-23.966176",
        "lon": "133.330078",
        "name": "Australia",
        "notes": "Australia covers CQ zones 29 and 30.\nIt also has ITU zones 55, 58 and 59.",
        "timezone": "10"
      },
      {
        "cc": "RU",
        "ccc": "RUS",
        "continent": "EU",
        "cqzone": "16",
        "dxcc": "151",
        "ituzone": "29",
        "lat": "60.620671",
        "lon": "28.564453",
        "name": "Maly Vysotsky Island",
        "timezone": "3"
      },
      {
        "cc": "MO",
        "ccc": "MAC",
        "continent": "AS",
        "cqzone": "24",
        "dxcc": "152",
        "ituzone": "44",
        "lat": "22.238260",
        "lon": "113.483276",
        "name": "Macau",
        "timezone": "8"
      },
      {
        "cc": "AU",
        "ccc": "AUS",
        "continent": "OC",
        "cqzone": "30",
        "dxcc": "153",
        "ituzone": "60",
        "lat": "-54.601506",
        "lon": "158.810120",
        "name": "Macquarie Island",
        "timezone": "11"
      },
      {
        "continent": "AS",
        "cqzone": "21",
        "dxcc": "154",
        "ituzone": "39",
        "lat": "15.559544",
        "lon": "47.966309",
        "name": "Yemen Arab Rep.",
        "timezone": "3"
      },
      {
        "continent": "AS",
        "cqzone": "28",
        "dxcc": "155",
        "ituzone": "54",
        "lat": "0.000000",
        "lon": "0.000000",
        "name": "Malaya",
        "timezone": "0"
      },
      {
        "cc": "NR",
        "ccc": "NRU",
        "continent": "OC",
        "cqzone": "31",
        "dxcc": "157",
        "ituzone": "65",
        "lat": "-0.530083",
        "lon": "166.931763",
        "name": "Nauru",
        "timezone": "12"
      },
      {
        "cc": "VU",
        "ccc": "VUT",
        "continent": "OC",
        "cqzone": "32",
        "dxcc": "158",
        "ituzone": "56",
        "lat": "-15.347762",
        "lon": "166.926270",
        "name": "Vanuatu",
        "timezone": "11"
      },
      {
        "cc": "MV",
        "ccc": "MDV",
        "continent": "AS",
        "cqzone": "22",
        "dxcc": "159",
        "ituzone": "41",
        "lat": "-0.615223",
        "lon": "73.168945",
        "name": "Maldives",
        "timezone": "5"
      },
      {
        "cc": "TO",
        "ccc": "TON",
        "continent": "OC",
        "cqzone": "32",
        "dxcc": "160",
        "ituzone": "62",
        "lat": "-21.222821",
        "lon": "-175.177002",
        "name": "Tonga",
        "timezone": "13"
      },
      {
        "cc": "CO",
        "ccc": "COL",
        "continent": "SA",
        "cqzone": "9",
        "dxcc": "161",
        "ituzone": "12",
        "lat": "3.998520",
        "lon": "-81.500702",
        "name": "Malpelo Island",
        "timezone": "-5"
      },
      {
        "cc": "NC",
        "ccc": "NCL",
        "continent": "OC",
        "cqzone": "32",
        "dxcc": "162",
        "ituzone": "56",
        "lat": "-21.596151",
        "lon": "165.761719",
        "name": "New Caledonia",
        "timezone": "11"
      },
      {
        "cc": "PG",
        "ccc": "PNG",
        "continent": "OC",
        "cqzone": "28",
        "dxcc": "163",
        "ituzone": "51",
        "lat": "-6.533645",
        "lon": "144.580078",
        "name": "Papua New Guinea",
        "timezone": "10"
      },
      {
        "continent": "AS",
        "cqzone": "24",
        "dxcc": "164",
        "ituzone": "33",
        "lat": "0.000000",
        "lon": "0.000000",
        "name": "Manchuria",
        "timezone": "0"
      },
      {
        "cc": "MU",
        "ccc": "MUS",
        "continent": "AF",
        "cqzone": "39",
        "dxcc": "165",
        "ituzone": "53",
        "lat": "-20.324024",
        "lon": "57.502441",
        "name": "Mauritius",
        "timezone": "4"
      },
      {
        "cc": "US",
        "ccc": "USA",
        "continent": "OC",
        "cqzone": "27",
        "dxcc": "166",
        "ituzone": "64",
        "lat": "15.231190",
        "lon": "145.772095",
        "name": "Mariana Islands",
        "timezone": "10"
      },
      {
        "cc": "SE",
        "ccc": "SWE",
        "continent": "EU",
        "cqzone": "15",
        "dxcc": "167",
        "ituzone": "18",
        "lat": "60.299743",
        "lon": "19.137154",
        "name": "Market Reef",
        "timezone": "2"
      },
      {
        "cc": "MH",
        "ccc": "MHL",
        "continent": "OC",
        "cqzone": "31",
        "dxcc": "168",
        "ituzone": "65",
        "lat": "7.288914",
        "lon": "168.711548",
        "name": "Marshall Islands",
        "timezone": "12"
      },
      {
        "cc": "YT",
        "ccc": "MYT",
        "continent": "AF",
        "cqzone": "39",
        "dxcc": "169",
        "ituzone": "53",
        "lat": "-12.801088",
        "lon": "45.148315",
        "name": "Mayotte",
        "timezone": "3"
      },
      {
        "cc": "NZ",
        "ccc": "NZL",
        "continent": "OC",
        "cqzone": "32",
        "dxcc": "170",
        "ituzone": "60",
        "lat": "-41.343825",
        "lon": "174.858398",
        "name": "New Zealand",
        "timezone": "12"
      },
      {
        "cc": "AU",
        "ccc": "AUS",
        "continent": "OC",
        "cqzone": "30",
        "dxcc": "171",
        "ituzone": "55",
        "lat": "-17.416667",
        "lon": "155.833333",
        "name": "Mellish Reef",
        "timezone": "10"
      },
      {
        "cc": "PN",
        "ccc": "PCN",
        "continent": "OC",
        "cqzone": "32",
        "dxcc": "172",
        "ituzone": "63",
        "lat": "-24.427145",
        "lon": "-128.320312",
        "name": "Pitcairn Islands",
        "timezone": "-9"
      },
      {
        "cc": "FM",
        "ccc": "FSM",
        "continent": "OC",
        "cqzone": "27",
        "dxcc": "173",
        "ituzone": "65",
        "lat": "6.899161",
        "lon": "158.197632",
        "name": "Micronesia",
        "timezone": "11"
      },
      {
        "cc": "US",
        "ccc": "USA",
        "continent": "OC",
        "cqzone": "31",
        "dxcc": "174",
        "ituzone": "61",
        "lat": "28.222130",
        "lon": "-177.368774",
        "name": "Midway Islands",
        "timezone": "-11"
      },
      {
        "cc": "PF",
        "ccc": "PYF",
        "continent": "OC",
        "cqzone": "32",
        "dxcc": "175",
        "ituzone": "63",
        "lat": "-17.670194",
        "lon": "-149.452515",
        "name": "French Polynesia",
        "timezone": "-10"
      },
      {
        "cc": "FJ",
        "ccc": "FJI",
        "continent": "OC",
        "cqzone": "32",
        "dxcc": "176",
        "ituzone": "56",
        "lat": "-17.811456",
        "lon": "177.934570",
        "name": "Fiji",
        "timezone": "12"
      },
      {
        "cc": "JP",
        "ccc": "JPN",
        "continent": "OC",
        "cqzone": "27",
        "dxcc": "177",
        "ituzone": "90",
        "lat": "24.279516",
        "lon": "153.976135",
        "name": "Minami Torishima",
        "timezone": "10"
      },
      {
        "continent": "OC",
        "cqzone": "32",
        "dxcc": "178",
        "ituzone": "62",
        "lat": "0.000000",
        "lon": "0.000000",
        "name": "Minerva Reef",
        "timezone": "0"
      },
      {
        "cc": "MD",
        "ccc": "MDA",
        "continent": "EU",
        "cqzone": "16",
        "dxcc": "179",
        "ituzone": "29",
        "lat": "47.055154",
        "lon": "28.916016",
        "name": "Moldova",
        "timezone": "3"
      },
      {
        "cc": "GR",
        "ccc": "GRC",
        "continent": "EU",
        "cqzone": "20",
        "dxcc": "180",
        "ituzone": "28",
        "lat": "40.006054",
        "lon": "23.994141",
        "name": "Mt Athos",
        "timezone": "2"
      },
      {
        "cc": "MZ",
        "ccc": "MOZ",
        "continent": "AF",
        "cqzone": "37",
        "dxcc": "181",
        "ituzone": "53",
        "lat": "-24.647017",
        "lon": "32.827148",
        "name": "Mozambique",
        "timezone": "2"
      },
      {
        "cc": "US",
        "ccc": "USA",
        "continent": "NA",
        "cqzone": "8",
        "dxcc": "182",
        "ituzone": "11",
        "lat": "18.406655",
        "lon": "-75.011902",
        "name": "Navassa Island",
        "timezone": "-5"
      },
      {
        "continent": "OC",
        "cqzone": "28",
        "dxcc": "183",
        "ituzone": "54",
        "lat": "0.000000",
        "lon": "0.000000",
        "name": "Netherlands Borneo",
        "timezone": "0"
      },
      {
        "continent": "OC",
        "cqzone": "28",
        "dxcc": "184",
        "ituzone": "51",
        "lat": "0.000000",
        "lon": "0.000000",
        "name": "Netherlands New Guinea",
        "timezone": "0"
      },
      {
        "cc": "SB",
        "ccc": "SLB",
        "continent": "OC",
        "cqzone": "28",
        "dxcc": "185",
        "ituzone": "51",
        "lat": "-9.622414",
        "lon": "160.048828",
        "name": "Solomon Islands",
        "timezone": "11"
      },
      {
        "continent": "NA",
        "cqzone": "2",
        "dxcc": "186",
        "ituzone": "9",
        "lat": "0.000000",
        "lon": "0.000000",
        "name": "Newfoundland, Labrador",
        "timezone": "0"
      },
      {
        "cc": "NE",
        "ccc": "NER",
        "continent": "AF",
        "cqzone": "35",
        "dxcc": "187",
        "ituzone": "46",
        "lat": "13.496473",
        "lon": "2.504883",
        "name": "Niger",
        "timezone": "1"
      },
      {
        "cc": "NU",
        "ccc": "NIU",
        "continent": "OC",
        "cqzone": "32",
        "dxcc": "188",
        "ituzone": "62",
        "lat": "-19.051734",
        "lon": "-169.881592",
        "name": "Niue",
        "timezone": "-11"
      },
      {
        "cc": "NF",
        "ccc": "NFK",
        "continent": "OC",
        "cqzone": "32",
        "dxcc": "189",
        "ituzone": "60",
        "lat": "-29.041763",
        "lon": "167.937012",
        "name": "Norfolk Island",
        "timezone": "12"
      },
      {
        "cc": "WS",
        "ccc": "WSM",
        "continent": "OC",
        "cqzone": "32",
        "dxcc": "190",
        "ituzone": "62",
        "lat": "-13.710035",
        "lon": "-172.485352",
        "name": "Samoa",
        "timezone": "-11"
      },
      {
        "cc": "NZ",
        "ccc": "NZL",
        "continent": "OC",
        "cqzone": "32",
        "dxcc": "191",
        "ituzone": "62",
        "lat": "-9.008330",
        "lon": "-157.958330",
        "name": "North Cook Islands",
        "timezone": "-11"
      },
      {
        "cc": "JP",
        "ccc": "JPN",
        "continent": "AS",
        "cqzone": "27",
        "dxcc": "192",
        "ituzone": "45",
        "lat": "27.681552",
        "lon": "142.139826",
        "name": "Ogasawara",
        "timezone": "10"
      },
      {
        "continent": "AS",
        "cqzone": "25",
        "dxcc": "193",
        "ituzone": "45",
        "lat": "15.883333",
        "lon": "-78.633333",
        "name": "Okinawa (Ryukyu Is.)",
        "timezone": "0"
      },
      {
        "continent": "AS",
        "cqzone": "27",
        "dxcc": "194",
        "ituzone": "45",
        "lat": "0.000000",
        "lon": "0.000000",
        "name": "Okino Tori-shima",
        "timezone": "0"
      },
      {
        "cc": "GQ",
        "ccc": "GNQ",
        "continent": "AF",
        "cqzone": "36",
        "dxcc": "195",
        "ituzone": "52",
        "lat": "-1.433566",
        "lon": "5.623627",
        "name": "Annobon Island",
        "timezone": "-1"
      },
      {
        "continent": "AS",
        "cqzone": "20",
        "dxcc": "196",
        "ituzone": "39",
        "lat": "0.000000",
        "lon": "0.000000",
        "name": "Palestine",
        "timezone": "0"
      },
      {
        "cc": "US",
        "ccc": "USA",
        "continent": "OC",
        "cqzone": "31",
        "dxcc": "197",
        "ituzone": "61",
        "lat": "-0.376279",
        "lon": "-160.015869",
        "name": "Palmyra, Jarvis Island",
        "timezone": "-11"
      },
      {
        "continent": "OC",
        "cqzone": "28",
        "dxcc": "198",
        "ituzone": "51",
        "lat": "0.000000",
        "lon": "0.000000",
        "name": "Papua Territory",
        "timezone": "0"
      },
      {
        "cc": "NO",
        "ccc": "NOR",
        "continent": "AN",
        "cqzone": "12",
        "dxcc": "199",
        "ituzone": "72",
        "lat": "-68.809971",
        "lon": "-90.593262",
        "name": "Peter I Island",
        "timezone": "-6"
      },
      {
        "continent": "OC",
        "cqzone": "28",
        "dxcc": "200",
        "ituzone": "54",
        "lat": "0.000000",
        "lon": "0.000000",
        "name": "Portuguese Timor",
        "timezone": "0"
      },
      {
        "cc": "ZA",
        "ccc": "ZAF",
        "continent": "AF",
        "cqzone": "38",
        "dxcc": "201",
        "ituzone": "57",
        "lat": "-46.908998",
        "lon": "37.735291",
        "name": "Prince Edward and Marion Island",
        "timezone": "3"
      },
      {
        "cc": "PR",
        "ccc": "PRI",
        "continent": "NA",
        "cqzone": "8",
        "dxcc": "202",
        "ituzone": "11",
        "lat": "18.166730",
        "lon": "-66.643066",
        "name": "Puerto Rico",
        "timezone": "-4"
      },
      {
        "cc": "AD",
        "ccc": "AND",
        "continent": "EU",
        "cqzone": "14",
        "dxcc": "203",
        "ituzone": "27",
        "lat": "42.535880",
        "lon": "1.549072",
        "name": "Andorra",
        "timezone": "1"
      },
      {
        "cc": "MX",
        "ccc": "MEX",
        "continent": "NA",
        "cqzone": "6",
        "dxcc": "204",
        "ituzone": "10",
        "lat": "18.344098",
        "lon": "-114.730225",
        "name": "Revillagigedo Islands",
        "timezone": "-7"
      },
      {
        "cc": "UK",
        "ccc": "ASC",
        "continent": "AF",
        "cqzone": "36",
        "dxcc": "205",
        "ituzone": "66",
        "lat": "-7.931395",
        "lon": "-14.375610",
        "name": "Ascension Island",
        "timezone": "0"
      },
      {
        "cc": "AT",
        "ccc": "AUT",
        "continent": "EU",
        "cqzone": "15",
        "dxcc": "206",
        "ituzone": "28",
        "lat": "47.532038",
        "lon": "15.095215",
        "name": "Austria",
        "timezone": "1"
      },
      {
        "cc": "MU",
        "ccc": "MUS",
        "continent": "AF",
        "cqzone": "39",
        "dxcc": "207",
        "ituzone": "53",
        "lat": "-19.712415",
        "lon": "63.432312",
        "name": "Rodriguez Island",
        "timezone": "4"
      },
      {
        "continent": "AF",
        "cqzone": "36",
        "dxcc": "208",
        "ituzone": "52",
        "lat": "0.000000",
        "lon": "0.000000",
        "name": "Ruanda-Urundi",
        "timezone": "0"
      },
      {
        "cc": "BE",
        "ccc": "BEL",
        "continent": "Eu",
        "cqzone": "14",
        "dxcc": "209",
        "ituzone": "27",
        "lat": "50.944584",
        "lon": "4.987793",
        "name": "Belgium",
        "timezone": "1"
      },
      {
        "continent": "EU",
        "cqzone": "14",
        "dxcc": "210",
        "ituzone": "28",
        "lat": "0.000000",
        "lon": "0.000000",
        "name": "Saar",
        "timezone": "0"
      },
      {
        "cc": "CA",
        "ccc": "CAN",
        "continent": "NA",
        "cqzone": "5",
        "dxcc": "211",
        "ituzone": "9",
        "lat": "43.935484",
        "lon": "-59.963379",
        "name": "Sable Island",
        "timezone": "-5"
      },
      {
        "cc": "BG",
        "ccc": "BGR",
        "continent": "EU",
        "cqzone": "20",
        "dxcc": "212",
        "ituzone": "28",
        "lat": "42.682435",
        "lon": "24.323730",
        "name": "Bulgaria",
        "timezone": "2"
      },
      {
        "cc": "FR",
        "ccc": "FRA",
        "continent": "NA",
        "cqzone": "8",
        "dxcc": "213",
        "ituzone": "11",
        "lat": "18.092339",
        "lon": "-63.042297",
        "name": "St Martin",
        "timezone": "-4"
      },
      {
        "cc": "FR",
        "ccc": "FRA",
        "continent": "EU",
        "cqzone": "15",
        "dxcc": "214",
        "ituzone": "28",
        "lat": "42.147114",
        "lon": "9.162598",
        "name": "Corsica",
        "timezone": "1"
      },
      {
        "cc": "CY",
        "ccc": "CYP",
        "continent": "AS",
        "cqzone": "20",
        "dxcc": "215",
        "ituzone": "39",
        "lat": "34.994004",
        "lon": "33.178711",
        "name": "Cyprus",
        "timezone": "3"
      },
      {
        "cc": "NI",
        "ccc": "NIC",
        "continent": "NA",
        "cqzone": "7",
        "dxcc": "216",
        "ituzone": "11",
        "lat": "13.297421",
        "lon": "-81.389465",
        "name": "San Andres and Providencia",
        "timezone": "-6"
      },
      {
        "cc": "CL",
        "ccc": "CHL",
        "continent": "SA",
        "cqzone": "12",
        "dxcc": "217",
        "ituzone": "14",
        "lat": "-26.002487",
        "lon": "-79.977722",
        "name": "San Felix",
        "timezone": "-5"
      },
      {
        "continent": "EU",
        "cqzone": "15",
        "dxcc": "218",
        "ituzone": "28",
        "lat": "0.000000",
        "lon": "0.000000",
        "name": "Czechoslovakia",
        "timezone": "0"
      },
      {
        "cc": "ST",
        "ccc": "STP",
        "continent": "AF",
        "cqzone": "36",
        "dxcc": "219",
        "ituzone": "47",
        "lat": "0.230712",
        "lon": "6.602783",
        "name": "Sao Tome & Principe",
        "timezone": "0"
      },
      {
        "cc": "DK",
        "ccc": "DNK",
        "continent": "EU",
        "cqzone": "14",
        "dxcc": "221",
        "ituzone": "18",
        "lat": "55.565922",
        "lon": "11.623535",
        "name": "Denmark",
        "timezone": "1"
      },
      {
        "cc": "FO",
        "ccc": "FRO",
        "continent": "EU",
        "cqzone": "14",
        "dxcc": "222",
        "ituzone": "18",
        "lat": "62.134708",
        "lon": "-6.921387",
        "name": "Faroe Islands",
        "timezone": "0"
      },
      {
        "cc": "GB",
        "ccc": "GBR",
        "continent": "EU",
        "cqzone": "14",
        "dxcc": "223",
        "ituzone": "27",
        "lat": "51.495065",
        "lon": "-0.175781",
        "name": "England",
        "timezone": "0"
      },
      {
        "cc": "FI",
        "ccc": "FIN",
        "continent": "EU",
        "cqzone": "15",
        "dxcc": "224",
        "ituzone": "18",
        "lat": "60.630102",
        "lon": "25.092773",
        "name": "Finland",
        "timezone": "2"
      },
      {
        "cc": "IT",
        "ccc": "ITA",
        "continent": "EU",
        "cqzone": "15",
        "dxcc": "225",
        "ituzone": "28",
        "lat": "40.262761",
        "lon": "9.030762",
        "name": "Sardinia",
        "timezone": "1"
      },
      {
        "continent": "AS",
        "cqzone": "21",
        "dxcc": "226",
        "ituzone": "39",
        "lat": "0.000000",
        "lon": "0.000000",
        "name": "Saudi Arabia/Iraq Neutral Zone",
        "timezone": "0"
      },
      {
        "cc": "FR",
        "ccc": "FRA",
        "continent": "EU",
        "cqzone": "14",
        "dxcc": "227",
        "ituzone": "27",
        "lat": "48.835797",
        "lon": "2.351074",
        "name": "France",
        "timezone": "1"
      },
      {
        "continent": "NA",
        "cqzone": "7",
        "dxcc": "228",
        "ituzone": "11",
        "lat": "0.000000",
        "lon": "0.000000",
        "name": "Serrana Bank & Roncador Cay",
        "timezone": "0"
      },
      {
        "continent": "EU",
        "cqzone": "14",
        "dxcc": "229",
        "ituzone": "28",
        "lat": "0.000000",
        "lon": "0.000000",
        "name": "German Democratic Republic",
        "timezone": "0"
      },
      {
        "cc": "DE",
        "ccc": "DEU",
        "continent": "EU",
        "cqzone": "14",
        "dxcc": "230",
        "ituzone": "28",
        "lat": "50.106488",
        "lon": "8.701172",
        "name": "Germany",
        "timezone": "1"
      },
      {
        "continent": "AS",
        "cqzone": "22",
        "dxcc": "231",
        "ituzone": "41",
        "lat": "0.000000",
        "lon": "0.000000",
        "name": "Sikkim",
        "timezone": "0"
      },
      {
        "cc": "SO",
        "ccc": "SOM",
        "continent": "AF",
        "cqzone": "37",
        "dxcc": "232",
        "ituzone": "48",
        "lat": "2.482133",
        "lon": "45.153809",
        "name": "Somalia",
        "timezone": "3"
      },
      {
        "cc": "GI",
        "ccc": "GIB",
        "continent": "EU",
        "cqzone": "14",
        "dxcc": "233",
        "ituzone": "37",
        "lat": "36.125119",
        "lon": "-5.348969",
        "name": "Gibraltar",
        "timezone": "1"
      },
      {
        "cc": "GS",
        "ccc": "SGS",
        "continent": "OC",
        "cqzone": "32",
        "dxcc": "234",
        "ituzone": "63",
        "lat": "-21.234982",
        "lon": "-159.767990",
        "name": "South Cook Islands",
        "timezone": "-11"
      },
      {
        "cc": "GS",
        "ccc": "SGS",
        "continent": "SA",
        "cqzone": "13",
        "dxcc": "235",
        "ituzone": "73",
        "lat": "-54.278055",
        "lon": "-36.870117",
        "name": "South Georgia Islands",
        "timezone": "-2"
      },
      {
        "cc": "GR",
        "ccc": "GRC",
        "continent": "EU",
        "cqzone": "20",
        "dxcc": "236",
        "ituzone": "28",
        "lat": "38.169114",
        "lon": "23.664551",
        "name": "Greece",
        "timezone": "2"
      },
      {
        "cc": "GL",
        "ccc": "GRL",
        "continent": "NA",
        "cqzone": "40",
        "dxcc": "237",
        "ituzone": "5",
        "lat": "63.860036",
        "lon": "-45.703125",
        "name": "Greenland",
        "timezone": "-3"
      },
      {
        "cc": "GB",
        "ccc": "GBR",
        "continent": "SA",
        "cqzone": "13",
        "dxcc": "238",
        "ituzone": "73",
        "lat": "-60.608542",
        "lon": "-45.439453",
        "name": "South Orkney Islands",
        "timezone": "-3"
      },
      {
        "cc": "HU",
        "ccc": "HUN",
        "continent": "EU",
        "cqzone": "15",
        "dxcc": "239",
        "ituzone": "28",
        "lat": "47.517201",
        "lon": "19.072266",
        "name": "Hungary",
        "timezone": "1"
      },
      {
        "cc": "GS",
        "ccc": "SGS",
        "continent": "SA",
        "cqzone": "13",
        "dxcc": "240",
        "ituzone": "73",
        "lat": "-58.436233",
        "lon": "-26.389160",
        "name": "South Sandwich Islands",
        "timezone": "-3"
      },
      {
        "cc": "GB",
        "ccc": "GBR",
        "continent": "SA",
        "cqzone": "13",
        "dxcc": "241",
        "ituzone": "73",
        "lat": "-62.000905",
        "lon": "-58.249512",
        "name": "South Shetland Islands",
        "timezone": "-4"
      },
      {
        "cc": "IS",
        "ccc": "ISL",
        "continent": "EU",
        "cqzone": "40",
        "dxcc": "242",
        "ituzone": "17",
        "lat": "64.396938",
        "lon": "-17.666016",
        "name": "Iceland",
        "timezone": "0"
      },
      {
        "continent": "AS",
        "cqzone": "21",
        "dxcc": "243",
        "ituzone": "39",
        "lat": "15.559544",
        "lon": "47.966309",
        "name": "People's Democratic Rep. of Yemen",
        "timezone": "3"
      },
      {
        "continent": "AF",
        "cqzone": "34",
        "dxcc": "244",
        "ituzone": "47",
        "lat": "0.000000",
        "lon": "0.000000",
        "name": "Southern Sudan",
        "timezone": "0"
      },
      {
        "cc": "IE",
        "ccc": "IRL",
        "continent": "EU",
        "cqzone": "14",
        "dxcc": "245",
        "ituzone": "27",
        "lat": "53.461890",
        "lon": "-7.668457",
        "name": "Ireland",
        "timezone": "0"
      },
      {
        "cc": "MT",
        "ccc": "MLT",
        "continent": "EU",
        "cqzone": "15",
        "dxcc": "246",
        "ituzone": "28",
        "lat": "41.905311",
        "lon": "12.480447",
        "name": "SMO Malta",
        "notes": "Sovereign Military Order of Malta - DXCC but not a country per se.",
        "timezone": "1"
      },
      {
        "cc": "PH",
        "ccc": "PHL",
        "continent": "AS",
        "cqzone": "26",
        "dxcc": "247",
        "ituzone": "50",
        "lat": "10.768556",
        "lon": "115.861816",
        "name": "Spratly Islands",
        "timezone": "7"
      },
      {
        "cc": "IT",
        "ccc": "ITA",
        "continent": "EU",
        "cqzone": "15",
        "dxcc": "248",
        "ituzone": "28",
        "lat": "42.779275",
        "lon": "12.897949",
        "name": "Italy",
        "timezone": "1"
      },
      {
        "cc": "KN",
        "ccc": "KNA",
        "continent": "NA",
        "cqzone": "8",
        "dxcc": "249",
        "ituzone": "11",
        "lat": "17.366367",
        "lon": "-62.786865",
        "name": "St Kitts and Nevis",
        "timezone": "-4"
      },
      {
        "cc": "SH",
        "ccc": "SHN",
        "continent": "AF",
        "cqzone": "36",
        "dxcc": "250",
        "ituzone": "66",
        "lat": "-15.966610",
        "lon": "-5.718384",
        "name": "St Helena Island",
        "timezone": "0"
      },
      {
        "cc": "LI",
        "ccc": "LIE",
        "continent": "EU",
        "cqzone": "14",
        "dxcc": "251",
        "ituzone": "28",
        "lat": "47.159840",
        "lon": "9.558105",
        "name": "Liechtenstein",
        "timezone": "1"
      },
      {
        "cc": "CA",
        "ccc": "CAN",
        "continent": "NA",
        "cqzone": "5",
        "dxcc": "252",
        "ituzone": "9",
        "lat": "47.202776",
        "lon": "-60.155640",
        "name": "St Paul Island",
        "timezone": "-5"
      },
      {
        "cc": "BR",
        "ccc": "BRA",
        "continent": "SA",
        "cqzone": "11",
        "dxcc": "253",
        "ituzone": "13",
        "lat": "0.944781",
        "lon": "-29.267578",
        "name": "St Peter & St Paul Rocks",
        "timezone": "-2"
      },
      {
        "cc": "LU",
        "ccc": "LUX",
        "continent": "EU",
        "cqzone": "14",
        "dxcc": "254",
        "ituzone": "27",
        "lat": "49.607150",
        "lon": "6.130371",
        "name": "Luxembourg",
        "timezone": "1"
      },
      {
        "continent": "NA",
        "cqzone": "8",
        "dxcc": "255",
        "ituzone": "11",
        "lat": "0.000000",
        "lon": "0.000000",
        "name": "St. Maarten, Saba, St. Eustatius",
        "timezone": "0"
      },
      {
        "cc": "PT",
        "ccc": "PRT",
        "continent": "AF",
        "cqzone": "33",
        "dxcc": "256",
        "ituzone": "36",
        "lat": "32.727220",
        "lon": "-16.973877",
        "name": "Madeira Island",
        "timezone": "-1"
      },
      {
        "cc": "MT",
        "ccc": "MLT",
        "continent": "EU",
        "cqzone": "15",
        "dxcc": "257",
        "ituzone": "28",
        "lat": "35.897950",
        "lon": "14.436035",
        "name": "Malta",
        "timezone": "1"
      },
      {
        "continent": "OC",
        "cqzone": "28",
        "dxcc": "258",
        "ituzone": "54",
        "lat": "0.000000",
        "lon": "0.000000",
        "name": "Sumatra",
        "timezone": "0"
      },
      {
        "cc": "SJ",
        "ccc": "SJM",
        "continent": "EU",
        "cqzone": "40",
        "dxcc": "259",
        "ituzone": "18",
        "lat": "78.599643",
        "lon": "15.864258",
        "name": "Svalbard",
        "timezone": "1"
      },
      {
        "cc": "MC",
        "ccc": "MCO",
        "continent": "EU",
        "cqzone": "14",
        "dxcc": "260",
        "ituzone": "27",
        "lat": "43.737864",
        "lon": "7.418518",
        "name": "Monaco",
        "timezone": "1"
      },
      {
        "continent": "NA",
        "cqzone": "7",
        "dxcc": "261",
        "ituzone": "11",
        "lat": "0.000000",
        "lon": "0.000000",
        "name": "Swan Is.",
        "timezone": "0"
      },
      {
        "cc": "TJ",
        "ccc": "TJK",
        "continent": "AS",
        "cqzone": "17",
        "dxcc": "262",
        "ituzone": "30",
        "lat": "38.702659",
        "lon": "68.774414",
        "name": "Tajikistan",
        "timezone": "6"
      },
      {
        "cc": "NL",
        "ccc": "NLD",
        "continent": "EU",
        "cqzone": "14",
        "dxcc": "263",
        "ituzone": "27",
        "lat": "52.011937",
        "lon": "4.526367",
        "name": "Netherlands",
        "timezone": "1"
      },
      {
        "continent": "AF",
        "cqzone": "33",
        "dxcc": "264",
        "ituzone": "37",
        "lat": "0.000000",
        "lon": "0.000000",
        "name": "Tangier",
        "timezone": "0"
      },
      {
        "cc": "IE",
        "ccc": "IRL",
        "continent": "EU",
        "cqzone": "14",
        "dxcc": "265",
        "ituzone": "27",
        "lat": "54.597528",
        "lon": "-5.954590",
        "name": "Northern Ireland",
        "timezone": "0"
      },
      {
        "cc": "NO",
        "ccc": "NOR",
        "continent": "EU",
        "cqzone": "14",
        "dxcc": "266",
        "ituzone": "18",
        "lat": "59.899958",
        "lon": "10.766602",
        "name": "Norway",
        "timezone": "1"
      },
      {
        "continent": "OC",
        "cqzone": "28",
        "dxcc": "267",
        "ituzone": "51",
        "lat": "0.000000",
        "lon": "0.000000",
        "name": "Territory of New Guinea",
        "timezone": "0"
      },
      {
        "continent": "AS",
        "cqzone": "23",
        "dxcc": "268",
        "ituzone": "41",
        "lat": "0.000000",
        "lon": "0.000000",
        "name": "Tibet",
        "timezone": "0"
      },
      {
        "cc": "PL",
        "ccc": "POL",
        "continent": "EU",
        "cqzone": "15",
        "dxcc": "269",
        "ituzone": "28",
        "lat": "52.254709",
        "lon": "21.049805",
        "name": "Poland",
        "timezone": "1"
      },
      {
        "cc": "TK",
        "ccc": "TKL",
        "continent": "OC",
        "cqzone": "31",
        "dxcc": "270",
        "ituzone": "62",
        "lat": "-9.210560",
        "lon": "-171.958008",
        "name": "Tokelau Islands",
        "timezone": "-11"
      },
      {
        "continent": "EU",
        "cqzone": "15",
        "dxcc": "271",
        "ituzone": "28",
        "lat": "0.000000",
        "lon": "0.000000",
        "name": "Trieste",
        "timezone": "0"
      },
      {
        "cc": "PT",
        "ccc": "PRT",
        "continent": "EU",
        "cqzone": "14",
        "dxcc": "272",
        "ituzone": "67",
        "lat": "39.588757",
        "lon": "-8.107910",
        "name": "Portugal",
        "timezone": "0"
      },
      {
        "cc": "BR",
        "ccc": "BRA",
        "continent": "SA",
        "cqzone": "11",
        "dxcc": "273",
        "ituzone": "15",
        "lat": "-20.499064",
        "lon": "-29.325256",
        "name": "Trindade and Martim Vaz Island",
        "timezone": "-2"
      },
      {
        "cc": "GB",
        "ccc": "GBR",
        "continent": "AF",
        "cqzone": "38",
        "dxcc": "274",
        "ituzone": "66",
        "lat": "-40.315138",
        "lon": "-9.944000",
        "name": "Tristan da Cunha and Gough Island",
        "timezone": "0"
      },
      {
        "cc": "RO",
        "ccc": "ROU",
        "continent": "EU",
        "cqzone": "20",
        "dxcc": "275",
        "ituzone": "28",
        "lat": "44.449468",
        "lon": "26.125488",
        "name": "Romania",
        "timezone": "2"
      },
      {
        "cc": "FR",
        "ccc": "FRA",
        "continent": "AF",
        "cqzone": "39",
        "dxcc": "276",
        "ituzone": "53",
        "lat": "-15.903225",
        "lon": "54.530640",
        "name": "Tromelin Island",
        "timezone": "4"
      },
      {
        "cc": "CA",
        "ccc": "CAN",
        "continent": "NA",
        "cqzone": "5",
        "dxcc": "277",
        "ituzone": "9",
        "lat": "46.931510",
        "lon": "-56.293945",
        "name": "St Pierre & Miquelon",
        "timezone": "-4"
      },
      {
        "cc": "SM",
        "ccc": "SMR",
        "continent": "EU",
        "cqzone": "15",
        "dxcc": "278",
        "ituzone": "28",
        "lat": "43.945372",
        "lon": "12.463989",
        "name": "San Marino",
        "timezone": "1"
      },
      {
        "cc": "GB",
        "ccc": "GBR",
        "continent": "EU",
        "cqzone": "14",
        "dxcc": "279",
        "ituzone": "27",
        "lat": "55.727110",
        "lon": "-3.339844",
        "name": "Scotland",
        "timezone": "0"
      },
      {
        "cc": "TM",
        "ccc": "TKM",
        "continent": "AS",
        "cqzone": "17",
        "dxcc": "280",
        "ituzone": "30",
        "lat": "39.249271",
        "lon": "59.040527",
        "name": "Turkmenistan",
        "timezone": "5"
      },
      {
        "cc": "ES",
        "ccc": "ESP",
        "continent": "EU",
        "cqzone": "14",
        "dxcc": "281",
        "ituzone": "37",
        "lat": "40.380028",
        "lon": "-3.735352",
        "name": "Spain",
        "timezone": "1"
      },
      {
        "cc": "TV",
        "ccc": "TUV",
        "continent": "OC",
        "cqzone": "31",
        "dxcc": "282",
        "ituzone": "65",
        "lat": "-8.537565",
        "lon": "179.187012",
        "name": "Tuvalu",
        "timezone": "12"
      },
      {
        "cc": "CY",
        "ccc": "CYP",
        "continent": "AS",
        "cqzone": "20",
        "dxcc": "283",
        "ituzone": "39",
        "lat": "34.601563",
        "lon": "32.969971",
        "name": "Cyprus SBA",
        "notes": "SBA = Sovereign Base Areas",
        "timezone": "2"
      },
      {
        "cc": "SE",
        "ccc": "SWE",
        "continent": "EU",
        "cqzone": "14",
        "dxcc": "284",
        "ituzone": "18",
        "lat": "59.333189",
        "lon": "18.083496",
        "name": "Sweden",
        "timezone": "1"
      },
      {
        "cc": "VI",
        "ccc": "VIR",
        "continent": "NA",
        "cqzone": "8",
        "dxcc": "285",
        "ituzone": "11",
        "lat": "17.722526",
        "lon": "-64.780884",
        "name": "US Virgin Islands",
        "timezone": "-4"
      },
      {
        "cc": "UG",
        "ccc": "UGA",
        "continent": "AF",
        "cqzone": "37",
        "dxcc": "286",
        "ituzone": "48",
        "lat": "0.351560",
        "lon": "32.563477",
        "name": "Uganda",
        "timezone": "3"
      },
      {
        "cc": "CH",
        "ccc": "CHE",
        "continent": "EU",
        "cqzone": "14",
        "dxcc": "287",
        "ituzone": "28",
        "lat": "46.935261",
        "lon": "7.382813",
        "name": "Switzerland",
        "timezone": "1"
      },
      {
        "cc": "UA",
        "ccc": "UKR",
        "continent": "EU",
        "cqzone": "16",
        "dxcc": "288",
        "ituzone": "29",
        "lat": "49.066668",
        "lon": "31.420898",
        "name": "Ukraine",
        "timezone": "2"
      },
      {
        "cc": "UN",
        "ccc": "USA",
        "continent": "NA",
        "cqzone": "5",
        "dxcc": "289",
        "ituzone": "8",
        "lat": "40.780541",
        "lon": "-74.003906",
        "name": "United Nations",
        "notes": "4U70UN",
        "timezone": "-5"
      },
      {
        "cc": "US",
        "ccc": "USA",
        "continent": "NA",
        "cqzone": "0",
        "dxcc": "291",
        "ituzone": "0",
        "lat": "37.701207",
        "lon": "-97.316895",
        "name": "United States",
        "timezone": "-5"
      },
      {
        "cc": "UZ",
        "ccc": "UZB",
        "continent": "AS",
        "cqzone": "17",
        "dxcc": "292",
        "ituzone": "30",
        "lat": "41.062786",
        "lon": "64.270020",
        "name": "Uzbekistan",
        "timezone": "6"
      },
      {
        "cc": "VN",
        "ccc": "VNM",
        "continent": "AS",
        "cqzone": "26",
        "dxcc": "293",
        "ituzone": "49",
        "lat": "13.368243",
        "lon": "108.566895",
        "name": "Vietnam",
        "timezone": "7"
      },
      {
        "cc": "GB",
        "ccc": "GBR",
        "continent": "EU",
        "cqzone": "14",
        "dxcc": "294",
        "ituzone": "27",
        "lat": "51.679368",
        "lon": "-3.581543",
        "name": "Wales",
        "timezone": "0"
      },
      {
        "cc": "VA",
        "ccc": "VAT",
        "continent": "EU",
        "cqzone": "15",
        "dxcc": "295",
        "ituzone": "28",
        "lat": "41.903044",
        "lon": "12.452660",
        "name": "Vatican",
        "timezone": "1"
      },
      {
        "cc": "RS",
        "ccc": "SRB",
        "continent": "EU",
        "cqzone": "15",
        "dxcc": "296",
        "ituzone": "28",
        "lat": "44.902578",
        "lon": "20.412598",
        "name": "Serbia",
        "notes": "Prefix 4N is the former Serbia",
        "timezone": "1"
      },
      {
        "cc": "US",
        "ccc": "USA",
        "continent": "OC",
        "cqzone": "31",
        "dxcc": "297",
        "ituzone": "65",
        "lat": "19.278740",
        "lon": "166.641998",
        "name": "Wake Island",
        "timezone": "12"
      },
      {
        "cc": "WF",
        "ccc": "WLF",
        "continent": "OC",
        "cqzone": "32",
        "dxcc": "298",
        "ituzone": "62",
        "lat": "-14.291001",
        "lon": "-178.157043",
        "name": "Wallis and Futuna Islands",
        "timezone": "-11"
      },
      {
        "cc": "MY",
        "ccc": "MYS",
        "continent": "AS",
        "cqzone": "28",
        "dxcc": "299",
        "ituzone": "54",
        "lat": "4.258768",
        "lon": "102.172852",
        "name": "West Malaysia",
        "timezone": "8"
      },
      {
        "cc": "KI",
        "ccc": "KIR",
        "continent": "OC",
        "cqzone": "31",
        "dxcc": "301",
        "ituzone": "65",
        "lat": "1.318243",
        "lon": "173.144531",
        "name": "Kiribati",
        "timezone": "12"
      },
      {
        "cc": "EH",
        "ccc": "ESH",
        "continent": "AF",
        "cqzone": "33",
        "dxcc": "302",
        "ituzone": "46",
        "lat": "24.846565",
        "lon": "-13.359375",
        "name": "Western Sahara",
        "timezone": "0"
      },
      {
        "cc": "AU",
        "ccc": "AUS",
        "continent": "OC",
        "cqzone": "30",
        "dxcc": "303",
        "ituzone": "55",
        "lat": "-16.117069",
        "lon": "150.016937",
        "name": "Willis Island",
        "timezone": "10"
      },
      {
        "cc": "BH",
        "ccc": "BHR",
        "continent": "AS",
        "cqzone": "21",
        "dxcc": "304",
        "ituzone": "39",
        "lat": "26.120918",
        "lon": "50.509644",
        "name": "Bahrain",
        "timezone": "4"
      },
      {
        "cc": "BD",
        "ccc": "BGD",
        "continent": "As",
        "cqzone": "22",
        "dxcc": "305",
        "ituzone": "41",
        "lat": "24.407138",
        "lon": "89.165039",
        "name": "Bangladesh",
        "timezone": "6"
      },
      {
        "cc": "BT",
        "ccc": "BTN",
        "continent": "As",
        "cqzone": "22",
        "dxcc": "306",
        "ituzone": "41",
        "lat": "27.313214",
        "lon": "89.582520",
        "name": "Bhutan",
        "timezone": "6"
      },
      {
        "continent": "AF",
        "cqzone": "37",
        "dxcc": "307",
        "ituzone": "53",
        "lat": "0.000000",
        "lon": "0.000000",
        "name": "Zanzibar",
        "timezone": "0"
      },
      {
        "cc": "CR",
        "ccc": "CRI",
        "continent": "NA",
        "cqzone": "7",
        "dxcc": "308",
        "ituzone": "11",
        "lat": "10.228437",
        "lon": "-84.155273",
        "name": "Costa Rica",
        "timezone": "-6"
      },
      {
        "cc": "MM",
        "ccc": "MMR",
        "continent": "AS",
        "cqzone": "26",
        "dxcc": "309",
        "ituzone": "49",
        "lat": "16.930705",
        "lon": "96.196289",
        "name": "Myanmar (Burma)",
        "timezone": "7"
      },
      {
        "cc": "KH",
        "ccc": "KHM",
        "continent": "AS",
        "cqzone": "26",
        "dxcc": "312",
        "ituzone": "49",
        "lat": "12.897489",
        "lon": "105.534668",
        "name": "Cambodia",
        "timezone": "8"
      },
      {
        "cc": "LK",
        "ccc": "LKA",
        "continent": "AS",
        "cqzone": "22",
        "dxcc": "315",
        "ituzone": "41",
        "lat": "7.297088",
        "lon": "80.024414",
        "name": "Sri Lanka",
        "timezone": "6"
      },
      {
        "cc": "CN",
        "ccc": "CHN",
        "continent": "AS",
        "cqzone": "23",
        "dxcc": "318",
        "ituzone": "33",
        "lat": "40.279526",
        "lon": "116.455078",
        "name": "China",
        "timezone": "8"
      },
      {
        "cc": "HK",
        "ccc": "HKG",
        "continent": "AS",
        "cqzone": "24",
        "dxcc": "321",
        "ituzone": "44",
        "lat": "22.325941",
        "lon": "114.169922",
        "name": "Hong Kong",
        "timezone": "8"
      },
      {
        "cc": "IN",
        "ccc": "IND",
        "continent": "AS",
        "cqzone": "22",
        "dxcc": "324",
        "ituzone": "41",
        "lat": "28.690588",
        "lon": "77.299805",
        "name": "India",
        "timezone": "6"
      },
      {
        "cc": "ID",
        "ccc": "IDN",
        "continent": "OC",
        "cqzone": "28",
        "dxcc": "327",
        "ituzone": "51",
        "lat": "-3.403758",
        "lon": "121.596680",
        "name": "Indonesia",
        "timezone": "8"
      },
      {
        "cc": "IR",
        "ccc": "IRN",
        "continent": "AS",
        "cqzone": "21",
        "dxcc": "330",
        "ituzone": "40",
        "lat": "35.692995",
        "lon": "51.437988",
        "name": "Iran",
        "timezone": "4"
      },
      {
        "cc": "IQ",
        "ccc": "IRQ",
        "continent": "AS",
        "cqzone": "21",
        "dxcc": "333",
        "ituzone": "39",
        "lat": "33.358062",
        "lon": "44.362793",
        "name": "Iraq",
        "timezone": "3"
      },
      {
        "cc": "IL",
        "ccc": "ISR",
        "continent": "AS",
        "cqzone": "20",
        "dxcc": "336",
        "ituzone": "39",
        "lat": "31.142305",
        "lon": "34.782715",
        "name": "Israel",
        "timezone": "2"
      },
      {
        "cc": "JP",
        "ccc": "JPN",
        "continent": "AS",
        "cqzone": "25",
        "dxcc": "339",
        "ituzone": "45",
        "lat": "36.244273",
        "lon": "137.592773",
        "name": "Japan",
        "timezone": "9"
      },
      {
        "cc": "JO",
        "ccc": "JOR",
        "continent": "AS",
        "cqzone": "20",
        "dxcc": "342",
        "ituzone": "39",
        "lat": "31.034108",
        "lon": "36.364746",
        "name": "Jordan",
        "timezone": "2"
      },
      {
        "cc": "KP",
        "ccc": "PRK",
        "continent": "AS",
        "cqzone": "25",
        "dxcc": "344",
        "ituzone": "44",
        "lat": "39.010648",
        "lon": "125.749512",
        "name": "North Korea",
        "timezone": "9"
      },
      {
        "cc": "BN",
        "ccc": "BRN",
        "continent": "OC",
        "cqzone": "28",
        "dxcc": "345",
        "ituzone": "54",
        "lat": "4.499762",
        "lon": "114.499512",
        "name": "Brunei",
        "timezone": "8"
      },
      {
        "cc": "KW",
        "ccc": "KWT",
        "continent": "AS",
        "cqzone": "21",
        "dxcc": "348",
        "ituzone": "39",
        "lat": "29.324720",
        "lon": "48.010254",
        "name": "Kuwait",
        "timezone": "3"
      },
      {
        "cc": "LB",
        "ccc": "LBN",
        "continent": "AS",
        "cqzone": "20",
        "dxcc": "354",
        "ituzone": "39",
        "lat": "33.852170",
        "lon": "35.507813",
        "name": "Lebanon",
        "timezone": "2"
      },
      {
        "cc": "MN",
        "ccc": "MNG",
        "continent": "AS",
        "cqzone": "23",
        "dxcc": "363",
        "ituzone": "32",
        "lat": "47.931066",
        "lon": "106.875000",
        "name": "Mongolia",
        "timezone": "8"
      },
      {
        "cc": "NP",
        "ccc": "NPL",
        "continent": "AS",
        "cqzone": "22",
        "dxcc": "369",
        "ituzone": "42",
        "lat": "27.741885",
        "lon": "85.275879",
        "name": "Nepal",
        "timezone": "545"
      },
      {
        "cc": "OM",
        "ccc": "OMN",
        "continent": "AS",
        "cqzone": "21",
        "dxcc": "370",
        "ituzone": "39",
        "lat": "22.593726",
        "lon": "58.337402",
        "name": "Oman",
        "timezone": "4"
      },
      {
        "cc": "PK",
        "ccc": "PAK",
        "continent": "AS",
        "cqzone": "21",
        "dxcc": "372",
        "ituzone": "41",
        "lat": "31.240985",
        "lon": "71.235352",
        "name": "Pakistan",
        "timezone": "5"
      },
      {
        "cc": "PH",
        "ccc": "PHL",
        "continent": "OC",
        "cqzone": "27",
        "dxcc": "375",
        "ituzone": "50",
        "lat": "14.647368",
        "lon": "121.003418",
        "name": "Philippines",
        "timezone": "8"
      },
      {
        "cc": "QA",
        "ccc": "QAT",
        "continent": "AS",
        "cqzone": "21",
        "dxcc": "376",
        "ituzone": "39",
        "lat": "25.264568",
        "lon": "51.174316",
        "name": "Qatar",
        "timezone": "4"
      },
      {
        "cc": "SA",
        "ccc": "SAU",
        "continent": "AS",
        "cqzone": "21",
        "dxcc": "378",
        "ituzone": "39",
        "lat": "24.746831",
        "lon": "46.735840",
        "name": "Saudi Arabia",
        "timezone": "3"
      },
      {
        "cc": "SC",
        "ccc": "SYC",
        "continent": "AF",
        "cqzone": "39",
        "dxcc": "379",
        "ituzone": "53",
        "lat": "-4.653080",
        "lon": "55.458984",
        "name": "Seychelles",
        "timezone": "4"
      },
      {
        "cc": "SG",
        "ccc": "SGP",
        "continent": "AS",
        "cqzone": "28",
        "dxcc": "381",
        "ituzone": "54",
        "lat": "1.318243",
        "lon": "103.842773",
        "name": "Singapore",
        "timezone": "8"
      },
      {
        "cc": "DJ",
        "ccc": "DJI",
        "continent": "AF",
        "cqzone": "37",
        "dxcc": "382",
        "ituzone": "48",
        "lat": "11.759815",
        "lon": "42.626953",
        "name": "Djibouti",
        "timezone": "3"
      },
      {
        "cc": "SY",
        "ccc": "SYR",
        "continent": "AS",
        "cqzone": "20",
        "dxcc": "384",
        "ituzone": "39",
        "lat": "35.227672",
        "lon": "37.792969",
        "name": "Syria",
        "timezone": "2"
      },
      {
        "cc": "TW",
        "ccc": "TWN",
        "continent": "AS",
        "cqzone": "24",
        "dxcc": "386",
        "ituzone": "44",
        "lat": "24.246965",
        "lon": "121.157227",
        "name": "Taiwan",
        "timezone": "8"
      },
      {
        "cc": "TH",
        "ccc": "THA",
        "continent": "AS",
        "cqzone": "26",
        "dxcc": "387",
        "ituzone": "49",
        "lat": "14.051331",
        "lon": "100.546875",
        "name": "Thailand",
        "timezone": "7"
      },
      {
        "cc": "TR",
        "ccc": "TUR",
        "continent": "AS",
        "cqzone": "20",
        "dxcc": "390",
        "ituzone": "39",
        "lat": "39.943436",
        "lon": "32.893066",
        "name": "Turkey",
        "timezone": "2"
      },
      {
        "cc": "AE",
        "ccc": "ARE",
        "continent": "AS",
        "cqzone": "21",
        "dxcc": "391",
        "ituzone": "39",
        "lat": "23.644524",
        "lon": "54.382324",
        "name": "United Arab Emirates",
        "timezone": "4"
      },
      {
        "cc": "DZ",
        "ccc": "DZA",
        "continent": "AF",
        "cqzone": "33",
        "dxcc": "400",
        "ituzone": "37",
        "lat": "29.152161",
        "lon": "2.724609",
        "name": "Algeria",
        "timezone": "0"
      },
      {
        "cc": "AO",
        "ccc": "AGO",
        "continent": "AF",
        "cqzone": "36",
        "dxcc": "401",
        "ituzone": "52",
        "lat": "-12.039321",
        "lon": "17.578125",
        "name": "Angola",
        "timezone": "1"
      },
      {
        "cc": "BW",
        "ccc": "BWA",
        "continent": "AF",
        "cqzone": "38",
        "dxcc": "402",
        "ituzone": "57",
        "lat": "-21.698265",
        "lon": "23.774414",
        "name": "Botswana",
        "timezone": "2"
      },
      {
        "cc": "BI",
        "ccc": "BDI",
        "continent": "AF",
        "cqzone": "36",
        "dxcc": "404",
        "ituzone": "52",
        "lat": "-2.899153",
        "lon": "30.036621",
        "name": "Burundi",
        "timezone": "3"
      },
      {
        "cc": "CM",
        "ccc": "CMR",
        "continent": "AF",
        "cqzone": "36",
        "dxcc": "406",
        "ituzone": "47",
        "lat": "4.368320",
        "lon": "11.997070",
        "name": "Cameroon",
        "timezone": "1"
      },
      {
        "cc": "CF",
        "ccc": "CAF",
        "continent": "AF",
        "cqzone": "36",
        "dxcc": "408",
        "ituzone": "47",
        "lat": "5.790897",
        "lon": "18.281250",
        "name": "Central African Republic",
        "timezone": "1"
      },
      {
        "cc": "CV",
        "ccc": "CPV",
        "continent": "AF",
        "cqzone": "35",
        "dxcc": "409",
        "ituzone": "46",
        "lat": "15.093339",
        "lon": "-23.686523",
        "name": "Cape Verde",
        "timezone": "-2"
      },
      {
        "cc": "TD",
        "ccc": "TCD",
        "continent": "AF",
        "cqzone": "36",
        "dxcc": "410",
        "ituzone": "47",
        "lat": "13.645987",
        "lon": "17.600098",
        "name": "Chad",
        "timezone": "1"
      },
      {
        "cc": "KM",
        "ccc": "COM",
        "continent": "AF",
        "cqzone": "39",
        "dxcc": "411",
        "ituzone": "53",
        "lat": "-11.716788",
        "lon": "43.264160",
        "name": "Comoros",
        "timezone": "3"
      },
      {
        "cc": "CG",
        "ccc": "COG",
        "continent": "AF",
        "cqzone": "36",
        "dxcc": "412",
        "ituzone": "52",
        "lat": "-0.285643",
        "lon": "15.710449",
        "name": "Congo",
        "timezone": "1"
      },
      {
        "cc": "CD",
        "ccc": "COD",
        "continent": "AF",
        "cqzone": "36",
        "dxcc": "414",
        "ituzone": "52",
        "lat": "-2.372369",
        "lon": "21.313477",
        "name": "Congo, Dem. Republic of",
        "notes": "Democratic Republic of the Congo",
        "timezone": "1"
      },
      {
        "cc": "BJ",
        "ccc": "BEN",
        "continent": "Af",
        "cqzone": "35",
        "dxcc": "416",
        "ituzone": "46",
        "lat": "7.754537",
        "lon": "2.087402",
        "name": "Benin",
        "timezone": "0"
      },
      {
        "cc": "GA",
        "ccc": "GAB",
        "continent": "AF",
        "cqzone": "36",
        "dxcc": "420",
        "ituzone": "52",
        "lat": "-0.527336",
        "lon": "10.305176",
        "name": "Gabon",
        "timezone": "1"
      },
      {
        "cc": "GM",
        "ccc": "GMB",
        "continent": "AF",
        "cqzone": "35",
        "dxcc": "422",
        "ituzone": "46",
        "lat": "13.410994",
        "lon": "-16.259766",
        "name": "The Gambia",
        "timezone": "0"
      },
      {
        "cc": "GH",
        "ccc": "GHA",
        "continent": "AF",
        "cqzone": "35",
        "dxcc": "424",
        "ituzone": "46",
        "lat": "6.970049",
        "lon": "-1.098633",
        "name": "Ghana",
        "timezone": "0"
      },
      {
        "cc": "CI",
        "ccc": "CIV",
        "continent": "AF",
        "cqzone": "35",
        "dxcc": "428",
        "ituzone": "46",
        "lat": "6.795535",
        "lon": "-5.361328",
        "name": "Ivory Coast",
        "notes": "aka CÃ´te d'Ivoire",
        "timezone": "0"
      },
      {
        "cc": "KE",
        "ccc": "KEN",
        "continent": "AF",
        "cqzone": "37",
        "dxcc": "430",
        "ituzone": "48",
        "lat": "-1.230374",
        "lon": "36.848145",
        "name": "Kenya",
        "timezone": "3"
      },
      {
        "cc": "LS",
        "ccc": "LSO",
        "continent": "AF",
        "cqzone": "38",
        "dxcc": "432",
        "ituzone": "57",
        "lat": "-29.573457",
        "lon": "28.081055",
        "name": "Lesotho",
        "timezone": "2"
      },
      {
        "cc": "LR",
        "ccc": "LBR",
        "continent": "AF",
        "cqzone": "35",
        "dxcc": "434",
        "ituzone": "46",
        "lat": "6.402648",
        "lon": "-9.580078",
        "name": "Liberia",
        "timezone": "-1"
      },
      {
        "cc": "LY",
        "ccc": "LBY",
        "continent": "AF",
        "cqzone": "34",
        "dxcc": "436",
        "ituzone": "38",
        "lat": "27.293689",
        "lon": "18.171387",
        "name": "Libya",
        "timezone": "2"
      },
      {
        "cc": "MG",
        "ccc": "MDG",
        "continent": "AF",
        "cqzone": "39",
        "dxcc": "438",
        "ituzone": "53",
        "lat": "-18.854310",
        "lon": "47.416992",
        "name": "Madagascar",
        "timezone": "3"
      },
      {
        "cc": "MW",
        "ccc": "MWI",
        "continent": "AF",
        "cqzone": "37",
        "dxcc": "440",
        "ituzone": "53",
        "lat": "-13.197165",
        "lon": "33.881836",
        "name": "Malawi",
        "timezone": "2"
      },
      {
        "cc": "ML",
        "ccc": "MLI",
        "continent": "AF",
        "cqzone": "35",
        "dxcc": "442",
        "ituzone": "46",
        "lat": "17.895114",
        "lon": "-2.856445",
        "name": "Mali",
        "timezone": "0"
      },
      {
        "cc": "MR",
        "ccc": "MRT",
        "continent": "AF",
        "cqzone": "35",
        "dxcc": "444",
        "ituzone": "46",
        "lat": "18.895893",
        "lon": "-12.832031",
        "name": "Mauritania",
        "timezone": "-1"
      },
      {
        "cc": "MA",
        "ccc": "MAR",
        "continent": "AF",
        "cqzone": "33",
        "dxcc": "446",
        "ituzone": "37",
        "lat": "31.653381",
        "lon": "-7.998047",
        "name": "Morocco",
        "timezone": "0"
      },
      {
        "cc": "NG",
        "ccc": "NGA",
        "continent": "AF",
        "cqzone": "35",
        "dxcc": "450",
        "ituzone": "46",
        "lat": "6.577303",
        "lon": "3.515625",
        "name": "Nigeria",
        "timezone": "1"
      },
      {
        "cc": "ZW",
        "ccc": "ZWE",
        "continent": "AF",
        "cqzone": "38",
        "dxcc": "452",
        "ituzone": "53",
        "lat": "-19.476950",
        "lon": "30.058594",
        "name": "Zimbabwe",
        "timezone": "2"
      },
      {
        "cc": "RE",
        "ccc": "REU",
        "continent": "AF",
        "cqzone": "39",
        "dxcc": "453",
        "ituzone": "53",
        "lat": "-21.145992",
        "lon": "55.480957",
        "name": "Reunion",
        "notes": "As of feb 20 2015 they use french flag",
        "timezone": "4"
      },
      {
        "cc": "RW",
        "ccc": "RWA",
        "continent": "AF",
        "cqzone": "36",
        "dxcc": "454",
        "ituzone": "52",
        "lat": "-2.240640",
        "lon": "29.663086",
        "name": "Rwanda",
        "timezone": "3"
      },
      {
        "cc": "SN",
        "ccc": "SEN",
        "continent": "AF",
        "cqzone": "35",
        "dxcc": "456",
        "ituzone": "46",
        "lat": "14.944785",
        "lon": "-14.941406",
        "name": "Senegal",
        "timezone": "0"
      },
      {
        "cc": "SL",
        "ccc": "SLE",
        "continent": "AF",
        "cqzone": "35",
        "dxcc": "458",
        "ituzone": "46",
        "lat": "8.494105",
        "lon": "-11.865234",
        "name": "Sierra Leone",
        "timezone": "0"
      },
      {
        "cc": "FJ",
        "ccc": "FJI",
        "continent": "OC",
        "cqzone": "32",
        "dxcc": "460",
        "ituzone": "56",
        "lat": "-12.503621",
        "lon": "177.069397",
        "name": "Rotuma",
        "timezone": "12"
      },
      {
        "cc": "ZA",
        "ccc": "ZAF",
        "continent": "AF",
        "cqzone": "38",
        "dxcc": "462",
        "ituzone": "57",
        "lat": "-26.096255",
        "lon": "28.037109",
        "name": "South Africa",
        "timezone": "2"
      },
      {
        "cc": "NA",
        "ccc": "NAM",
        "continent": "AF",
        "cqzone": "38",
        "dxcc": "464",
        "ituzone": "57",
        "lat": "-22.634293",
        "lon": "17.050781",
        "name": "Namibia",
        "timezone": "2"
      },
      {
        "cc": "SD",
        "ccc": "SDN",
        "continent": "AF",
        "cqzone": "34",
        "dxcc": "466",
        "ituzone": "48",
        "lat": "15.749963",
        "lon": "32.387695",
        "name": "Sudan",
        "timezone": "2"
      },
      {
        "cc": "SZ",
        "ccc": "SWZ",
        "continent": "AF",
        "cqzone": "38",
        "dxcc": "468",
        "ituzone": "57",
        "lat": "-26.549223",
        "lon": "31.311035",
        "name": "Swaziland",
        "timezone": "2"
      },
      {
        "cc": "TZ",
        "ccc": "TZA",
        "continent": "AF",
        "cqzone": "37",
        "dxcc": "470",
        "ituzone": "53",
        "lat": "-6.489983",
        "lon": "35.332031",
        "name": "Tanzania",
        "timezone": "3"
      },
      {
        "cc": "TN",
        "ccc": "TUN",
        "continent": "AF",
        "cqzone": "33",
        "dxcc": "474",
        "ituzone": "37",
        "lat": "35.942436",
        "lon": "9.580078",
        "name": "Tunisia",
        "timezone": "1"
      },
      {
        "cc": "EG",
        "ccc": "EGY",
        "continent": "AF",
        "cqzone": "34",
        "dxcc": "478",
        "ituzone": "38",
        "lat": "30.996446",
        "lon": "30.739746",
        "name": "Egypt",
        "timezone": "2"
      },
      {
        "cc": "BF",
        "ccc": "BFA",
        "continent": "AF",
        "cqzone": "35",
        "dxcc": "480",
        "ituzone": "46",
        "lat": "12.833226",
        "lon": "-0.966797",
        "name": "Burkina Faso",
        "timezone": "0"
      },
      {
        "cc": "ZM",
        "ccc": "ZMB",
        "continent": "AF",
        "cqzone": "36",
        "dxcc": "482",
        "ituzone": "53",
        "lat": "-15.284185",
        "lon": "26.191406",
        "name": "Zambia",
        "timezone": "2"
      },
      {
        "cc": "TG",
        "ccc": "TGO",
        "continent": "AF",
        "cqzone": "35",
        "dxcc": "483",
        "ituzone": "46",
        "lat": "6.991859",
        "lon": "1.010742",
        "name": "Togo",
        "timezone": "0"
      },
      {
        "continent": "AF",
        "cqzone": "38",
        "dxcc": "488",
        "ituzone": "57",
        "lat": "0.000000",
        "lon": "0.000000",
        "name": "Walvis Bay",
        "timezone": "0"
      },
      {
        "cc": "FJ",
        "ccc": "FJI",
        "continent": "OC",
        "cqzone": "32",
        "dxcc": "489",
        "ituzone": "56",
        "lat": "-21.779905",
        "lon": "174.781494",
        "name": "Conway Reef",
        "timezone": "12"
      },
      {
        "cc": "KI",
        "ccc": "KIR",
        "continent": "OC",
        "cqzone": "31",
        "dxcc": "490",
        "ituzone": "65",
        "lat": "0.859476",
        "lon": "169.536424",
        "name": "Banaba Island",
        "timezone": "12"
      },
      {
        "cc": "YE",
        "ccc": "YEM",
        "continent": "AS",
        "cqzone": "21",
        "dxcc": "492",
        "ituzone": "39",
        "lat": "15.559544",
        "lon": "47.966309",
        "name": "Yemen",
        "timezone": "3"
      },
      {
        "continent": "AF",
        "cqzone": "38",
        "dxcc": "493",
        "ituzone": "57",
        "lat": "0.000000",
        "lon": "0.000000",
        "name": "Penguin Is.",
        "timezone": "0"
      },
      {
        "cc": "HR",
        "ccc": "HRV",
        "continent": "EU",
        "cqzone": "15",
        "dxcc": "497",
        "ituzone": "28",
        "lat": "45.813486",
        "lon": "16.347656",
        "name": "Croatia",
        "timezone": "1"
      },
      {
        "cc": "SI",
        "ccc": "SVN",
        "continent": "EU",
        "cqzone": "15",
        "dxcc": "499",
        "ituzone": "28",
        "lat": "46.012224",
        "lon": "14.501953",
        "name": "Slovenia",
        "timezone": "1"
      },
      {
        "cc": "BA",
        "ccc": "BIH",
        "continent": "EU",
        "cqzone": "15",
        "dxcc": "501",
        "ituzone": "28",
        "lat": "43.977005",
        "lon": "17.512207",
        "name": "Bosnia and Herzegovina",
        "notes": "Prefix E7 is the former Bosnia",
        "timezone": "1"
      },